{
   "type": "FeatureCollection",
   "features": [
  {
    "type": "Feature",
    "geometry": {
       "type": "Point",
       "coordinates":  [ -73.9648745,40.7528844 ]
    },
    "properties": {
    "Permit_Type":"Indoor",
    "Facility_Name":"1 BEEKMAN PLACE INC",
    "Category":"Private Res.",
    "ADDRESS_ No":"1",
    "ADDRESS_St":"BEEKMAN PLACE",
    "BO":"MA",
    "ZIP":10022,
    "Community Board":106,
    "Council District":4
    }
  },
  {
    "type": "Feature",
    "geometry": {
       "type": "Point",
       "coordinates":  [ -73.9803778,40.7174899 ]
    },
    "properties": {
    "Permit_Type":"Indoor",
    "Facility_Name":"MASARYK TOWERS INC",
    "Category":"Private Res.",
    "ADDRESS_ No":"69",
    "ADDRESS_St":"COLUMBIA STREET",
    "BO":"MA",
    "ZIP":10002,
    "Community Board":103,
    "Council District":2
    }
  },
  {
    "type": "Feature",
    "geometry": {
       "type": "Point",
       "coordinates":  [ -73.9762367,40.7257886 ]
    },
    "properties": {
    "Permit_Type":"Indoor",
    "Facility_Name":"VILLAGE EAST TOWERS INC.",
    "Category":"Private Res.",
    "ADDRESS_ No":"411",
    "ADDRESS_St":"EAST 10 STREET",
    "BO":"MA",
    "ZIP":10009,
    "Community Board":103,
    "Council District":2
    }
  },
  {
    "type": "Feature",
    "geometry": {
       "type": "Point",
       "coordinates":  [ -73.9529721,40.7797102 ]
    },
    "properties": {
    "Permit_Type":"Indoor",
    "Facility_Name":"CLARIDGE HOUSE LLC",
    "Category":"Private Res.",
    "ADDRESS_ No":"201",
    "ADDRESS_St":"EAST 87 STREET",
    "BO":"MA",
    "ZIP":10128,
    "Community Board":108,
    "Council District":5
    }
  },
  {
    "type": "Feature",
    "geometry": {
       "type": "Point",
       "coordinates":  [ -73.9516297,40.7733815 ]
    },
    "properties": {
    "Permit_Type":"Indoor",
    "Facility_Name":"GRACIE MEWS POOL AND HEALTH CLUB INC",
    "Category":"Private Res.",
    "ADDRESS_ No":"401",
    "ADDRESS_St":"EAST 80 STREET",
    "BO":"MA",
    "ZIP":10021,
    "Community Board":108,
    "Council District":5
    }
  },
  {
    "type": "Feature",
    "geometry": {
       "type": "Point",
       "coordinates":  [ -73.946774,40.781007 ]
    },
    "properties": {
    "Permit_Type":"Indoor",
    "Facility_Name":"340 EAST 93RD STREET CORP. PLYMOUTH TOWERS CLUB",
    "Category":"Private Res.",
    "ADDRESS_ No":"340",
    "ADDRESS_St":"EAST 93 STREET",
    "BO":"MA",
    "ZIP":10128,
    "Community Board":108,
    "Council District":5
    }
  },
  {
    "type": "Feature",
    "geometry": {
       "type": "Point",
       "coordinates":  [ -73.95918,40.7644155 ]
    },
    "properties": {
    "Permit_Type":"Indoor",
    "Facility_Name":"333 EAST 66TH STREET CORPORATION",
    "Category":"Private Res.",
    "ADDRESS_ No":"333",
    "ADDRESS_St":"EAST 66 STREET",
    "BO":"MA",
    "ZIP":10021,
    "Community Board":108,
    "Council District":5
    }
  },
  {
    "type": "Feature",
    "geometry": {
       "type": "Point",
       "coordinates":  [ -73.9663495,40.7570928 ]
    },
    "properties": {
    "Permit_Type":"Indoor",
    "Facility_Name":"CONNAUGHT TOWER CORPORATION",
    "Category":"Private Res.",
    "ADDRESS_ No":"300",
    "ADDRESS_St":"EAST 54 STREET",
    "BO":"MA",
    "ZIP":10022,
    "Community Board":106,
    "Council District":4
    }
  },
  {
    "type": "Feature",
    "geometry": {
       "type": "Point",
       "coordinates":  [ -73.9768734,40.7481485 ]
    },
    "properties": {
    "Permit_Type":"Indoor",
    "Facility_Name":"MURRAY HILL MEWS OWNERS CORP",
    "Category":"Private Res.",
    "ADDRESS_ No":"160",
    "ADDRESS_St":"EAST 38 STREET",
    "BO":"MA",
    "ZIP":10016,
    "Community Board":106,
    "Council District":4
    }
  },
  {
    "type": "Feature",
    "geometry": {
       "type": "Point",
       "coordinates":  [ -73.9502411,40.7617289 ]
    },
    "properties": {
    "Permit_Type":"Indoor",
    "Facility_Name":"RIVERCROSS TENANTS CORP",
    "Category":"Private Res.",
    "ADDRESS_ No":"531",
    "ADDRESS_St":"MAIN STREET",
    "BO":"MA",
    "ZIP":10044,
    "Community Board":108,
    "Council District":5
    }
  },
  {
    "type": "Feature",
    "geometry": {
       "type": "Point",
       "coordinates":  [ -73.9523796,40.7719285 ]
    },
    "properties": {
    "Permit_Type":"Indoor",
    "Facility_Name":"HAMPTON HOUSE CONDOMINIUM",
    "Category":"Private Res.",
    "ADDRESS_ No":"404",
    "ADDRESS_St":"EAST 79 STREET",
    "BO":"MA",
    "ZIP":10021,
    "Community Board":108,
    "Council District":5
    }
  },
  {
    "type": "Feature",
    "geometry": {
       "type": "Point",
       "coordinates":  [ -73.9716642,40.7451918 ]
    },
    "properties": {
    "Permit_Type":"Indoor",
    "Facility_Name":"MANHATTAN PLACE CONDOMINIUM",
    "Category":"Private Res.",
    "ADDRESS_ No":"630",
    "ADDRESS_St":"1 AVENUE",
    "BO":"MA",
    "ZIP":10016,
    "Community Board":106,
    "Council District":4
    }
  },
  {
    "type": "Feature",
    "geometry": {
       "type": "Point",
       "coordinates":  [ -73.9738086,40.7491509 ]
    },
    "properties": {
    "Permit_Type":"Indoor",
    "Facility_Name":"ZWIN VANDERBILT ASSOCIATES",
    "Category":"Private Res.",
    "ADDRESS_ No":"235",
    "ADDRESS_St":"EAST 40 STREET",
    "BO":"MA",
    "ZIP":10016,
    "Community Board":106,
    "Council District":4
    }
  },
  {
    "type": "Feature",
    "geometry": {
       "type": "Point",
       "coordinates":  [ -73.9792549,40.76494 ]
    },
    "properties": {
    "Permit_Type":"Indoor",
    "Facility_Name":"METROPOLITAN TOWER CLUB INC",
    "Category":"Private Res.",
    "ADDRESS_ No":"146",
    "ADDRESS_St":"WEST 57 STREET",
    "BO":"MA",
    "ZIP":10019,
    "Community Board":105,
    "Council District":4
    }
  },
  {
    "type": "Feature",
    "geometry": {
       "type": "Point",
       "coordinates":  [ -73.9771931,40.7862189 ]
    },
    "properties": {
    "Permit_Type":"Indoor",
    "Facility_Name":"BROMLEY CONDOMINIUM",
    "Category":"Private Res.",
    "ADDRESS_ No":"225",
    "ADDRESS_St":"WEST 83 STREET",
    "BO":"MA",
    "ZIP":10024,
    "Community Board":107,
    "Council District":6
    }
  },
  {
    "type": "Feature",
    "geometry": {
       "type": "Point",
       "coordinates":  [ -73.961325,40.7641328 ]
    },
    "properties": {
    "Permit_Type":"Indoor",
    "Facility_Name":"RIO CONDO/SPA % BELLMARC REALTY",
    "Category":"Private Res.",
    "ADDRESS_ No":"304",
    "ADDRESS_St":"EAST 65 STREET",
    "BO":"MA",
    "ZIP":10021,
    "Community Board":108,
    "Council District":5
    }
  },
  {
    "type": "Feature",
    "geometry": {
       "type": "Point",
       "coordinates":  [ -74.0179251,40.7091188 ]
    },
    "properties": {
    "Permit_Type":"Indoor",
    "Facility_Name":"MARINER'S COVE SITE K ASSOCIATES TERRACE C / TERRACE CLUB",
    "Category":"Private Res.",
    "ADDRESS_ No":"380",
    "ADDRESS_St":"RECTOR PLACE",
    "BO":"MA",
    "ZIP":10280,
    "Community Board":101,
    "Council District":1
    }
  },
  {
    "type": "Feature",
    "geometry": {
       "type": "Point",
       "coordinates":  [ -73.9513983,40.7666448 ]
    },
    "properties": {
    "Permit_Type":"Indoor",
    "Facility_Name":"EAST RIVER POOL CLUB INC",
    "Category":"Private Res.",
    "ADDRESS_ No":"525",
    "ADDRESS_St":"EAST 72 STREET",
    "BO":"MA",
    "ZIP":10021,
    "Community Board":108,
    "Council District":5
    }
  },
  {
    "type": "Feature",
    "geometry": {
       "type": "Point",
       "coordinates":  [ -73.9519402,40.776824 ]
    },
    "properties": {
    "Permit_Type":"Indoor",
    "Facility_Name":"300 E. 85TH HOUSING CORP HEALTH CLUB",
    "Category":"Private Res.",
    "ADDRESS_ No":"300",
    "ADDRESS_St":"EAST 85 STREET",
    "BO":"MA",
    "ZIP":10028,
    "Community Board":108,
    "Council District":5
    }
  },
  {
    "type": "Feature",
    "geometry": {
       "type": "Point",
       "coordinates":  [ -73.9797499,40.7642486 ]
    },
    "properties": {
    "Permit_Type":"Indoor",
    "Facility_Name":"CITYSPIRE CONDOMINIUM BRD. OF MANAGERS",
    "Category":"Private Res.",
    "ADDRESS_ No":"150",
    "ADDRESS_St":"WEST 56 STREET",
    "BO":"MA",
    "ZIP":10019,
    "Community Board":105,
    "Council District":4
    }
  },
  {
    "type": "Feature",
    "geometry": {
       "type": "Point",
       "coordinates":  [ -73.9713332,40.745484 ]
    },
    "properties": {
    "Permit_Type":"Indoor",
    "Facility_Name":"THE HORIZON CONDOMINIUM - B",
    "Category":"Private Res.",
    "ADDRESS_ No":"415",
    "ADDRESS_St":"EAST 37 STREET",
    "BO":"MA",
    "ZIP":10016,
    "Community Board":106,
    "Council District":4
    }
  },
  {
    "type": "Feature",
    "geometry": {
       "type": "Point",
       "coordinates":  [ -73.9954328,40.7602412 ]
    },
    "properties": {
    "Permit_Type":"Indoor",
    "Facility_Name":"STRAND CONDOMINIUM ASSOC",
    "Category":"Private Res.",
    "ADDRESS_ No":"500",
    "ADDRESS_St":"WEST 43 STREET",
    "BO":"MA",
    "ZIP":10036,
    "Community Board":104,
    "Council District":3
    }
  },
  {
    "type": "Feature",
    "geometry": {
       "type": "Point",
       "coordinates":  [ -73.9524527,40.7660223 ]
    },
    "properties": {
    "Permit_Type":"Indoor",
    "Facility_Name":"BELAIRE CONDOMINIUM CORP",
    "Category":"Private Res.",
    "ADDRESS_ No":"524",
    "ADDRESS_St":"EAST 72 STREET",
    "BO":"MA",
    "ZIP":10022,
    "Community Board":108,
    "Council District":5
    }
  },
  {
    "type": "Feature",
    "geometry": {
       "type": "Point",
       "coordinates":  [ -73.972462,40.7462651 ]
    },
    "properties": {
    "Permit_Type":"Indoor",
    "Facility_Name":"CORINTHIAN CONDOMINIUM HEALTH CLUB",
    "Category":"Private Res.",
    "ADDRESS_ No":"330",
    "ADDRESS_St":"EAST 38 STREET",
    "BO":"MA",
    "ZIP":10016,
    "Community Board":106,
    "Council District":4
    }
  },
  {
    "type": "Feature",
    "geometry": {
       "type": "Point",
       "coordinates":  [ -73.9753426,40.7616637 ]
    },
    "properties": {
    "Permit_Type":"Indoor",
    "Facility_Name":"THE PENINSULA SPA/POOL",
    "Category":"Private Res.",
    "ADDRESS_ No":"700",
    "ADDRESS_St":"5 AVENUE",
    "BO":"MA",
    "ZIP":10019,
    "Community Board":105,
    "Council District":4
    }
  },
  {
    "type": "Feature",
    "geometry": {
       "type": "Point",
       "coordinates":  [ -73.9831196,40.767078 ]
    },
    "properties": {
    "Permit_Type":"Indoor",
    "Facility_Name":"CENTRAL PARK PLACE - CONDOMINIUM",
    "Category":"Private Res.",
    "ADDRESS_ No":"301",
    "ADDRESS_St":"WEST 57 STREET",
    "BO":"MA",
    "ZIP":10019,
    "Community Board":104,
    "Council District":3
    }
  },
  {
    "type": "Feature",
    "geometry": {
       "type": "Point",
       "coordinates":  [ -73.9473481,40.7762478 ]
    },
    "properties": {
    "Permit_Type":"Indoor",
    "Facility_Name":"CHANNEL CLUB CONDO",
    "Category":"Private Res.",
    "ADDRESS_ No":"455",
    "ADDRESS_St":"EAST 86 STREET",
    "BO":"MA",
    "ZIP":10028,
    "Community Board":108,
    "Council District":5
    }
  },
  {
    "type": "Feature",
    "geometry": {
       "type": "Point",
       "coordinates":  [ -73.9524453,40.7804832 ]
    },
    "properties": {
    "Permit_Type":"Indoor",
    "Facility_Name":"THE MONARCH CONDOMINIUM ASSOCIATION",
    "Category":"Private Res.",
    "ADDRESS_ No":"200",
    "ADDRESS_St":"EAST 89 STREET",
    "BO":"MA",
    "ZIP":10028,
    "Community Board":108,
    "Council District":5
    }
  },
  {
    "type": "Feature",
    "geometry": {
       "type": "Point",
       "coordinates":  [ -73.9550344,40.7669211 ]
    },
    "properties": {
    "Permit_Type":"Indoor",
    "Facility_Name":"OXFORD ON 72ND STREET",
    "Category":"Private Res.",
    "ADDRESS_ No":"422",
    "ADDRESS_St":"EAST 72 STREET",
    "BO":"MA",
    "ZIP":10021,
    "Community Board":108,
    "Council District":5
    }
  },
  {
    "type": "Feature",
    "geometry": {
       "type": "Point",
       "coordinates":  [ -73.9874858,40.7396033 ]
    },
    "properties": {
    "Permit_Type":"Indoor",
    "Facility_Name":"HOFFMAN MANAGEMENT",
    "Category":"Private Res.",
    "ADDRESS_ No":"280",
    "ADDRESS_St":"PARK AVENUE SOUTH",
    "BO":"MA",
    "ZIP":10010,
    "Community Board":105,
    "Council District":2
    }
  },
  {
    "type": "Feature",
    "geometry": {
       "type": "Point",
       "coordinates":  [ -73.9753315,40.7910043 ]
    },
    "properties": {
    "Permit_Type":"Indoor",
    "Facility_Name":"NEW WEST COND. ASSOC.",
    "Category":"Private Res.",
    "ADDRESS_ No":"250",
    "ADDRESS_St":"WEST 90 STREET",
    "BO":"MA",
    "ZIP":10024,
    "Community Board":107,
    "Council District":6
    }
  },
  {
    "type": "Feature",
    "geometry": {
       "type": "Point",
       "coordinates":  [ -73.9533198,40.7723564 ]
    },
    "properties": {
    "Permit_Type":"Indoor",
    "Facility_Name":"79TH REALTY CO / LUCERNE HEALTH CLUB",
    "Category":"Private Res.",
    "ADDRESS_ No":"350",
    "ADDRESS_St":"EAST 79 STREET",
    "BO":"MA",
    "ZIP":10021,
    "Community Board":108,
    "Council District":5
    }
  },
  {
    "type": "Feature",
    "geometry": {
       "type": "Point",
       "coordinates":  [ -73.9841508,40.774284 ]
    },
    "properties": {
    "Permit_Type":"Indoor",
    "Facility_Name":"THREE LINCOLN CENTER CONDO. ASSOC",
    "Category":"Private Res.",
    "ADDRESS_ No":"160",
    "ADDRESS_St":"WEST 66 STREET",
    "BO":"MA",
    "ZIP":10023,
    "Community Board":107,
    "Council District":6
    }
  },
  {
    "type": "Feature",
    "geometry": {
       "type": "Point",
       "coordinates":  [ -73.9843325,40.7405961 ]
    },
    "properties": {
    "Permit_Type":"Indoor",
    "Facility_Name":"LEX TENANTS CORP",
    "Category":"Private Res.",
    "ADDRESS_ No":"50",
    "ADDRESS_St":"LEXINGTON AVENUE",
    "BO":"MA",
    "ZIP":10010,
    "Community Board":105,
    "Council District":2
    }
  },
  {
    "type": "Feature",
    "geometry": {
       "type": "Point",
       "coordinates":  [ -73.9558923,40.7803919 ]
    },
    "properties": {
    "Permit_Type":"Indoor",
    "Facility_Name":"PARK AVE COURT CONDO/HEALTH CLUB",
    "Category":"Private Res.",
    "ADDRESS_ No":"120",
    "ADDRESS_St":"EAST 87 STREET",
    "BO":"MA",
    "ZIP":10128,
    "Community Board":108,
    "Council District":4
    }
  },
  {
    "type": "Feature",
    "geometry": {
       "type": "Point",
       "coordinates":  [ -73.9566986,40.7829632 ]
    },
    "properties": {
    "Permit_Type":"Indoor",
    "Facility_Name":"89TH MADISON OWNERS CORP.",
    "Category":"Private Res.",
    "ADDRESS_ No":"45",
    "ADDRESS_St":"EAST 89 STREET",
    "BO":"MA",
    "ZIP":10128,
    "Community Board":108,
    "Council District":4
    }
  },
  {
    "type": "Feature",
    "geometry": {
       "type": "Point",
       "coordinates":  [ -74.0058893,40.7157785 ]
    },
    "properties": {
    "Permit_Type":"Indoor",
    "Facility_Name":"JEFF T.BLAU & DAVID WINE / TRIBECA TOWER",
    "Category":"Private Res.",
    "ADDRESS_ No":"105",
    "ADDRESS_St":"DUANE STREET",
    "BO":"MA",
    "ZIP":10007,
    "Community Board":101,
    "Council District":1
    }
  },
  {
    "type": "Feature",
    "geometry": {
       "type": "Point",
       "coordinates":  [ -73.9540497,40.7795378 ]
    },
    "properties": {
    "Permit_Type":"Indoor",
    "Facility_Name":"GOTHAM CONDOMINIUM HEALTH CLUB",
    "Category":"Private Res.",
    "ADDRESS_ No":"170",
    "ADDRESS_St":"EAST 87 STREET",
    "BO":"MA",
    "ZIP":10128,
    "Community Board":108,
    "Council District":5
    }
  },
  {
    "type": "Feature",
    "geometry": {
       "type": "Point",
       "coordinates":  [ -73.9499965,40.7685084 ]
    },
    "properties": {
    "Permit_Type":"Indoor",
    "Facility_Name":"PROMENADE CONDOMINIUM",
    "Category":"Private Res.",
    "ADDRESS_ No":"530",
    "ADDRESS_St":"EAST 76 STREET",
    "BO":"MA",
    "ZIP":10021,
    "Community Board":108,
    "Council District":5
    }
  },
  {
    "type": "Feature",
    "geometry": {
       "type": "Point",
       "coordinates":  [ -73.9728389,40.7479844 ]
    },
    "properties": {
    "Permit_Type":"Indoor",
    "Facility_Name":"CHURCHHILL OWNERS CORP.",
    "Category":"Private Res.",
    "ADDRESS_ No":"300",
    "ADDRESS_St":"EAST 40 STREET",
    "BO":"MA",
    "ZIP":10016,
    "Community Board":106,
    "Council District":4
    }
  },
  {
    "type": "Feature",
    "geometry": {
       "type": "Point",
       "coordinates":  [ -73.9816714,40.7771727 ]
    },
    "properties": {
    "Permit_Type":"Indoor",
    "Facility_Name":"THE CORONADO CONDOMINIUM",
    "Category":"Private Res.",
    "ADDRESS_ No":"155",
    "ADDRESS_St":"WEST 70 STREET",
    "BO":"MA",
    "ZIP":10023,
    "Community Board":107,
    "Council District":6
    }
  },
  {
    "type": "Feature",
    "geometry": {
       "type": "Point",
       "coordinates":  [ -73.9439269,40.7766673 ]
    },
    "properties": {
    "Permit_Type":"Outdoor",
    "Facility_Name":"180 TENANTS CORP",
    "Category":"Private Res.",
    "ADDRESS_ No":"180",
    "ADDRESS_St":"EAST END AVENUE",
    "BO":"MA",
    "ZIP":10028,
    "Community Board":108,
    "Council District":5
    }
  },
  {
    "type": "Feature",
    "geometry": {
       "type": "Point",
       "coordinates":  [ -73.9728389,40.7479844 ]
    },
    "properties": {
    "Permit_Type":"Outdoor",
    "Facility_Name":"CHURCHILL OWNERS CORP",
    "Category":"Private Res.",
    "ADDRESS_ No":"300",
    "ADDRESS_St":"EAST 40 STREET",
    "BO":"MA",
    "ZIP":10016,
    "Community Board":106,
    "Council District":4
    }
  },
  {
    "type": "Feature",
    "geometry": {
       "type": "Point",
       "coordinates":  [ -73.9930316,40.7305852 ]
    },
    "properties": {
    "Permit_Type":"Outdoor",
    "Facility_Name":"GEORGETOWN PLAZA OWNERS CORP",
    "Category":"Private Res.",
    "ADDRESS_ No":"60",
    "ADDRESS_St":"EAST 8 STREET",
    "BO":"MA",
    "ZIP":10003,
    "Community Board":102,
    "Council District":1
    }
  },
  {
    "type": "Feature",
    "geometry": {
       "type": "Point",
       "coordinates":  [ -73.9630783,40.7571111 ]
    },
    "properties": {
    "Permit_Type":"Outdoor",
    "Facility_Name":"PLAZA 400 OWNERS CORP",
    "Category":"Private Res.",
    "ADDRESS_ No":"400",
    "ADDRESS_St":"EAST 56 STREET",
    "BO":"MA",
    "ZIP":10022,
    "Community Board":106,
    "Council District":5
    }
  },
  {
    "type": "Feature",
    "geometry": {
       "type": "Point",
       "coordinates":  [ -73.9517317,40.7785165 ]
    },
    "properties": {
    "Permit_Type":"Outdoor",
    "Facility_Name":"250 EAST 87TH OWNERS CORP",
    "Category":"Private Res.",
    "ADDRESS_ No":"250",
    "ADDRESS_St":"EAST 87 STREET",
    "BO":"MA",
    "ZIP":10029,
    "Community Board":108,
    "Council District":5
    }
  },
  {
    "type": "Feature",
    "geometry": {
       "type": "Point",
       "coordinates":  [ -73.9960013,40.7603037 ]
    },
    "properties": {
    "Permit_Type":"Outdoor",
    "Facility_Name":"FICO REALTY INC",
    "Category":"Private Res.",
    "ADDRESS_ No":"515",
    "ADDRESS_St":"WEST 42 STREET",
    "BO":"MA",
    "ZIP":10036,
    "Community Board":104,
    "Council District":3
    }
  },
  {
    "type": "Feature",
    "geometry": {
       "type": "Point",
       "coordinates":  [ -73.9469425,40.7660446 ]
    },
    "properties": {
    "Permit_Type":"Outdoor",
    "Facility_Name":"ROOSEVELT ISL. ASSOC BY MANHATTAN PK",
    "Category":"Private Res.",
    "ADDRESS_ No":"30",
    "ADDRESS_St":"RIVER ROAD",
    "BO":"MA",
    "ZIP":10044,
    "Community Board":108,
    "Council District":5
    }
  },
  {
    "type": "Feature",
    "geometry": {
       "type": "Point",
       "coordinates":  [ -73.9501903,40.7752512 ]
    },
    "properties": {
    "Permit_Type":"Indoor",
    "Facility_Name":"400 E 84TH STREET ASSOCIATES L.P",
    "Category":"Private Res.",
    "ADDRESS_ No":"400",
    "ADDRESS_St":"EAST 84 STREET",
    "BO":"MA",
    "ZIP":10028,
    "Community Board":108,
    "Council District":5
    }
  },
  {
    "type": "Feature",
    "geometry": {
       "type": "Point",
       "coordinates":  [ -73.9688576,40.7604477 ]
    },
    "properties": {
    "Permit_Type":"Indoor",
    "Facility_Name":"142-148 EAST 57 STREET LLC",
    "Category":"Private Res.",
    "ADDRESS_ No":"142-148",
    "ADDRESS_St":"EAST 57 STREET",
    "BO":"MA",
    "ZIP":10022,
    "Community Board":106,
    "Council District":4
    }
  },
  {
    "type": "Feature",
    "geometry": {
       "type": "Point",
       "coordinates":  [ -73.9754258,40.7891485 ]
    },
    "properties": {
    "Permit_Type":"Indoor",
    "Facility_Name":"BLDG MANAGEMENT CO. INC. / THE MONTANA",
    "Category":"Private Res.",
    "ADDRESS_ No":"247",
    "ADDRESS_St":"WEST 87 STREET",
    "BO":"MA",
    "ZIP":10024,
    "Community Board":107,
    "Council District":6
    }
  },
  {
    "type": "Feature",
    "geometry": {
       "type": "Point",
       "coordinates":  [ -73.9743724,40.7481127 ]
    },
    "properties": {
    "Permit_Type":"Indoor",
    "Facility_Name":"39TH REALTY LLC",
    "Category":"Private Res.",
    "ADDRESS_ No":"240",
    "ADDRESS_St":"EAST 39 STREET",
    "BO":"MA",
    "ZIP":10016,
    "Community Board":106,
    "Council District":4
    }
  },
  {
    "type": "Feature",
    "geometry": {
       "type": "Point",
       "coordinates":  [ -73.9816255,40.7690255 ]
    },
    "properties": {
    "Permit_Type":"Indoor",
    "Facility_Name":"TRUMP INTERNATIONAL HOTEL & TOWER",
    "Category":"Private Res.",
    "ADDRESS_ No":"1",
    "ADDRESS_St":"CENTRAL PARK WEST",
    "BO":"MA",
    "ZIP":10023,
    "Community Board":107,
    "Council District":3
    }
  },
  {
    "type": "Feature",
    "geometry": {
       "type": "Point",
       "coordinates":  [ -73.9566986,40.7829632 ]
    },
    "properties": {
    "Permit_Type":"Outdoor",
    "Facility_Name":"89TH & MADISON OWNER'S CORP",
    "Category":"Private Res.",
    "ADDRESS_ No":"45",
    "ADDRESS_St":"EAST 89 STREET",
    "BO":"MA",
    "ZIP":10128,
    "Community Board":108,
    "Council District":4
    }
  },
  {
    "type": "Feature",
    "geometry": {
       "type": "Point",
       "coordinates":  [ -74.0004335,40.7615683 ]
    },
    "properties": {
    "Permit_Type":"Indoor",
    "Facility_Name":"RIVER PLACE I LLC",
    "Category":"Private Res.",
    "ADDRESS_ No":"1",
    "ADDRESS_St":"RIVER PLACE",
    "BO":"MA",
    "ZIP":10036,
    "Community Board":104,
    "Council District":3
    }
  },
  {
    "type": "Feature",
    "geometry": {
       "type": "Point",
       "coordinates":  [ -74.0145427,40.7173714 ]
    },
    "properties": {
    "Permit_Type":"Indoor",
    "Facility_Name":"BROOKDALE LIVING COMMUNITIES OF NEW YORK -BP",
    "Category":"Private Res.",
    "ADDRESS_ No":"455",
    "ADDRESS_St":"NORTH END AVE",
    "BO":"MA",
    "ZIP":10282,
    "Community Board":101,
    "Council District":1
    }
  },
  {
    "type": "Feature",
    "geometry": {
       "type": "Point",
       "coordinates":  [ -73.9676966,40.7525229 ]
    },
    "properties": {
    "Permit_Type":"Indoor",
    "Facility_Name":"TRUMP WORLD TOWER",
    "Category":"Private Res.",
    "ADDRESS_ No":"845",
    "ADDRESS_St":"UNITED NATIONS PLAZA",
    "BO":"MA",
    "ZIP":10017,
    "Community Board":106,
    "Council District":4
    }
  },
  {
    "type": "Feature",
    "geometry": {
       "type": "Point",
       "coordinates":  [ -73.9800645,40.7769059 ]
    },
    "properties": {
    "Permit_Type":"Indoor",
    "Facility_Name":"WHITEHALL PROPERTIES II LLC",
    "Category":"Private Res.",
    "ADDRESS_ No":"60",
    "ADDRESS_St":"WEST 23 STREET",
    "BO":"MA",
    "ZIP":10023,
    "Community Board":105,
    "Council District":3
    }
  },
  {
    "type": "Feature",
    "geometry": {
       "type": "Point",
       "coordinates":  [ -73.9492357,40.7630313 ]
    },
    "properties": {
    "Permit_Type":"Indoor",
    "Facility_Name":"NORTH TOWN PHASE III ASSOCIATES LP",
    "Category":"Private Res.",
    "ADDRESS_ No":"595",
    "ADDRESS_St":"MAIN STREET",
    "BO":"MA",
    "ZIP":10044,
    "Community Board":108,
    "Council District":5
    }
  },
  {
    "type": "Feature",
    "geometry": {
       "type": "Point",
       "coordinates":  [ -73.9806455,40.7430148 ]
    },
    "properties": {
    "Permit_Type":"Indoor",
    "Facility_Name":"H & P 29TH STREETASSOCIATES LLC DBA CLUB 29",
    "Category":"Private Res.",
    "ADDRESS_ No":"155",
    "ADDRESS_St":"EAST 29 STREET",
    "BO":"MA",
    "ZIP":10016,
    "Community Board":106,
    "Council District":2
    }
  },
  {
    "type": "Feature",
    "geometry": {
       "type": "Point",
       "coordinates":  [ -73.9815796,40.7716812 ]
    },
    "properties": {
    "Permit_Type":"Indoor",
    "Facility_Name":"20 WEST 64TH STREET ASSOCIATES LLC",
    "Category":"Private Res.",
    "ADDRESS_ No":"20",
    "ADDRESS_St":"WEST 64 STREET",
    "BO":"MA",
    "ZIP":10023,
    "Community Board":107,
    "Council District":6
    }
  },
  {
    "type": "Feature",
    "geometry": {
       "type": "Point",
       "coordinates":  [ -73.948572,40.7844692 ]
    },
    "properties": {
    "Permit_Type":"Indoor",
    "Facility_Name":"MF ASSOCIATES OF NEW YORK LLC",
    "Category":"Private Res.",
    "ADDRESS_ No":"215",
    "ADDRESS_St":"EAST 95 STREET",
    "BO":"MA",
    "ZIP":10128,
    "Community Board":108,
    "Council District":5
    }
  },
  {
    "type": "Feature",
    "geometry": {
       "type": "Point",
       "coordinates":  [ -74.0082765,40.7073488 ]
    },
    "properties": {
    "Permit_Type":"Indoor",
    "Facility_Name":"LIBERTY STREET REALTY LLC",
    "Category":"Private Res.",
    "ADDRESS_ No":"10",
    "ADDRESS_St":"LIBERTY STREET",
    "BO":"MA",
    "ZIP":10005,
    "Community Board":101,
    "Council District":1
    }
  },
  {
    "type": "Feature",
    "geometry": {
       "type": "Point",
       "coordinates":  [ -73.9823843,40.779156 ]
    },
    "properties": {
    "Permit_Type":"Indoor",
    "Facility_Name":"THE ALEXANDRIA CONDOMINIUM",
    "Category":"Private Res.",
    "ADDRESS_ No":"201",
    "ADDRESS_St":"WEST 72 STREET",
    "BO":"MA",
    "ZIP":10023,
    "Community Board":107,
    "Council District":6
    }
  },
  {
    "type": "Feature",
    "geometry": {
       "type": "Point",
       "coordinates":  [ -73.9818735,40.7724936 ]
    },
    "properties": {
    "Permit_Type":"Indoor",
    "Facility_Name":"WEST 64TH ST LLC",
    "Category":"Private Res.",
    "ADDRESS_ No":"1930",
    "ADDRESS_St":"BROADWAY",
    "BO":"MA",
    "ZIP":10023,
    "Community Board":107,
    "Council District":6
    }
  },
  {
    "type": "Feature",
    "geometry": {
       "type": "Point",
       "coordinates":  [ -74.0096815,40.7341445 ]
    },
    "properties": {
    "Permit_Type":"Indoor",
    "Facility_Name":"410 WEST LLC./165 CHARLES ST. CONDOMINIUM FITNESS CENTER",
    "Category":"Private Res.",
    "ADDRESS_ No":"165-169",
    "ADDRESS_St":"CHARLES STREET",
    "BO":"MA",
    "ZIP":10014,
    "Community Board":102,
    "Council District":3
    }
  },
  {
    "type": "Feature",
    "geometry": {
       "type": "Point",
       "coordinates":  [ -73.9429124,40.7688841 ]
    },
    "properties": {
    "Permit_Type":"Outdoor",
    "Facility_Name":"OCTAGON LP",
    "Category":"Private Res.",
    "ADDRESS_ No":"888",
    "ADDRESS_St":"MAIN STREET",
    "BO":"MA",
    "ZIP":10044,
    "Community Board":108,
    "Council District":5
    }
  },
  {
    "type": "Feature",
    "geometry": {
       "type": "Point",
       "coordinates":  [ -74.00898,40.7352316 ]
    },
    "properties": {
    "Permit_Type":"Indoor",
    "Facility_Name":"360 WEST 11TH LLC",
    "Category":"Private Res.",
    "ADDRESS_ No":"360",
    "ADDRESS_St":"WEST 11 STREET",
    "BO":"MA",
    "ZIP":10014,
    "Community Board":102,
    "Council District":3
    }
  },
  {
    "type": "Feature",
    "geometry": {
       "type": "Point",
       "coordinates":  [ -73.9923304,40.7578531 ]
    },
    "properties": {
    "Permit_Type":"Indoor",
    "Facility_Name":"ORION CONDOMINIUM",
    "Category":"Private Res.",
    "ADDRESS_ No":"350",
    "ADDRESS_St":"WEST 42 STREET",
    "BO":"MA",
    "ZIP":10036,
    "Community Board":104,
    "Council District":3
    }
  },
  {
    "type": "Feature",
    "geometry": {
       "type": "Point",
       "coordinates":  [ -73.9480901,40.7849374 ]
    },
    "properties": {
    "Permit_Type":"Indoor",
    "Facility_Name":"UPPER EAST LEASE ASSOCIATION LLC",
    "Category":"Private Res.",
    "ADDRESS_ No":"217",
    "ADDRESS_St":"EAST 96 STREET",
    "BO":"MA",
    "ZIP":10128,
    "Community Board":111,
    "Council District":5
    }
  },
  {
    "type": "Feature",
    "geometry": {
       "type": "Point",
       "coordinates":  [ -73.9856872,40.7619828 ]
    },
    "properties": {
    "Permit_Type":"Indoor",
    "Facility_Name":"ASN 50TH LLC",
    "Category":"Private Res.",
    "ADDRESS_ No":"250",
    "ADDRESS_St":"WEST 50 STREET",
    "BO":"MA",
    "ZIP":10019,
    "Community Board":105,
    "Council District":3
    }
  },
  {
    "type": "Feature",
    "geometry": {
       "type": "Point",
       "coordinates":  [ -73.9505784,40.7758537 ]
    },
    "properties": {
    "Permit_Type":"Outdoor",
    "Facility_Name":"ADAM'S TOWER LIMITED PARTNERSHIP",
    "Category":"Private Res.",
    "ADDRESS_ No":"351",
    "ADDRESS_St":"EAST 84 STREET",
    "BO":"MA",
    "ZIP":10028,
    "Community Board":108,
    "Council District":5
    }
  },
  {
    "type": "Feature",
    "geometry": {
       "type": "Point",
       "coordinates":  [ -74.0091061,40.7122236 ]
    },
    "properties": {
    "Permit_Type":"Indoor",
    "Facility_Name":"BARCLAY STREET REALTY LLC",
    "Category":"Private Res.",
    "ADDRESS_ No":"10",
    "ADDRESS_St":"BARCLAY STREET",
    "BO":"MA",
    "ZIP":10007,
    "Community Board":101,
    "Council District":1
    }
  },
  {
    "type": "Feature",
    "geometry": {
       "type": "Point",
       "coordinates":  [ -73.9850675,40.7474382 ]
    },
    "properties": {
    "Permit_Type":"Indoor",
    "Facility_Name":"325 FIFTH AVENUE CONDOMINIUM",
    "Category":"Private Res.",
    "ADDRESS_ No":"325",
    "ADDRESS_St":"5 AVENUE",
    "BO":"MA",
    "ZIP":10016,
    "Community Board":105,
    "Council District":4
    }
  },
  {
    "type": "Feature",
    "geometry": {
       "type": "Point",
       "coordinates":  [ -73.9519172,40.7743326 ]
    },
    "properties": {
    "Permit_Type":"Indoor",
    "Facility_Name":"WELLINGTON TOWERS CONDO",
    "Category":"Private Res.",
    "ADDRESS_ No":"350",
    "ADDRESS_St":"EAST 82 STREET",
    "BO":"MA",
    "ZIP":10028,
    "Community Board":108,
    "Council District":5
    }
  },
  {
    "type": "Feature",
    "geometry": {
       "type": "Point",
       "coordinates":  [ -73.9707208,40.7971978 ]
    },
    "properties": {
    "Permit_Type":"Indoor",
    "Facility_Name":"245 W  99 ST ARIEL WEST",
    "Category":"Private Res.",
    "ADDRESS_ No":"245",
    "ADDRESS_St":"WEST 99 STREET",
    "BO":"MA",
    "ZIP":10025,
    "Community Board":107,
    "Council District":6
    }
  },
  {
    "type": "Feature",
    "geometry": {
       "type": "Point",
       "coordinates":  [ -73.9927592,40.7261588 ]
    },
    "properties": {
    "Permit_Type":"Indoor",
    "Facility_Name":"48 BONDHAUS CORP",
    "Category":"Private Res.",
    "ADDRESS_ No":"48",
    "ADDRESS_St":"BOND STREET",
    "BO":"MA",
    "ZIP":10012,
    "Community Board":102,
    "Council District":1
    }
  },
  {
    "type": "Feature",
    "geometry": {
       "type": "Point",
       "coordinates":  [ -73.9927835,40.7550976 ]
    },
    "properties": {
    "Permit_Type":"Indoor",
    "Facility_Name":"WEST 38 STREET DEVELOPMENT LLC",
    "Category":"Private Res.",
    "ADDRESS_ No":"320",
    "ADDRESS_St":"WEST 38 STREET",
    "BO":"MA",
    "ZIP":10018,
    "Community Board":104,
    "Council District":3
    }
  },
  {
    "type": "Feature",
    "geometry": {
       "type": "Point",
       "coordinates":  [ -73.9822517,40.75104 ]
    },
    "properties": {
    "Permit_Type":"Indoor",
    "Facility_Name":"425 FIFTH AVENUE CONDOMINIUM LLC",
    "Category":"Private Res.",
    "ADDRESS_ No":"425",
    "ADDRESS_St":"5 AVENUE",
    "BO":"MA",
    "ZIP":10016,
    "Community Board":105,
    "Council District":4
    }
  },
  {
    "type": "Feature",
    "geometry": {
       "type": "Point",
       "coordinates":  [ -73.981731,40.7707681 ]
    },
    "properties": {
    "Permit_Type":"Indoor",
    "Facility_Name":"MILFORD MANAGEMENT CORP",
    "Category":"Private Res.",
    "ADDRESS_ No":"30",
    "ADDRESS_St":"WEST 63 STREET",
    "BO":"MA",
    "ZIP":10023,
    "Community Board":107,
    "Council District":6
    }
  },
  {
    "type": "Feature",
    "geometry": {
       "type": "Point",
       "coordinates":  [ -73.9947104,40.7430565 ]
    },
    "properties": {
    "Permit_Type":"Outdoor",
    "Facility_Name":"133 WEST 22ND ST. CONDOMINIUM",
    "Category":"Private Res.",
    "ADDRESS_ No":"133",
    "ADDRESS_St":"WEST 22 STREET",
    "BO":"MA",
    "ZIP":10011,
    "Community Board":104,
    "Council District":3
    }
  },
  {
    "type": "Feature",
    "geometry": {
       "type": "Point",
       "coordinates":  [ -73.9810746,40.7697189 ]
    },
    "properties": {
    "Permit_Type":"Indoor",
    "Facility_Name":"FIFTEEN CENTRAL PARK WEST CONDOMINIUM",
    "Category":"Private Res.",
    "ADDRESS_ No":"15",
    "ADDRESS_St":"CENTRAL PARK WEST",
    "BO":"MA",
    "ZIP":10023,
    "Community Board":107,
    "Council District":3
    }
  },
  {
    "type": "Feature",
    "geometry": {
       "type": "Point",
       "coordinates":  [ -74.0169068,40.7069489 ]
    },
    "properties": {
    "Permit_Type":"Indoor",
    "Facility_Name":"THE VISIONAIRE CONDOMINIUM",
    "Category":"Private Res.",
    "ADDRESS_ No":"70",
    "ADDRESS_St":"LITTLE WEST STREET",
    "BO":"MA",
    "ZIP":10280,
    "Community Board":101,
    "Council District":1
    }
  },
  {
    "type": "Feature",
    "geometry": {
       "type": "Point",
       "coordinates":  [ -74.01597,40.7153643 ]
    },
    "properties": {
    "Permit_Type":"Indoor",
    "Facility_Name":"RIVERHOUSE ONE ROCKEFELLER PARK",
    "Category":"Private Res.",
    "ADDRESS_ No":"2",
    "ADDRESS_St":"RIVER TERRACE",
    "BO":"MA",
    "ZIP":10282,
    "Community Board":101,
    "Council District":1
    }
  },
  {
    "type": "Feature",
    "geometry": {
       "type": "Point",
       "coordinates":  [ -73.9735684,40.7485306 ]
    },
    "properties": {
    "Permit_Type":"Indoor",
    "Facility_Name":"THE HIGHPOINT CONDOMINIUM",
    "Category":"Private Res.",
    "ADDRESS_ No":"250",
    "ADDRESS_St":"EAST 40 STREET",
    "BO":"MA",
    "ZIP":10016,
    "Community Board":106,
    "Council District":4
    }
  },
  {
    "type": "Feature",
    "geometry": {
       "type": "Point",
       "coordinates":  [ -73.9876208,40.7598688 ]
    },
    "properties": {
    "Permit_Type":"Indoor",
    "Facility_Name":"PLATINUM CONDOMINIUM",
    "Category":"Private Res.",
    "ADDRESS_ No":"247",
    "ADDRESS_St":"WEST 46 STREET",
    "BO":"MA",
    "ZIP":10036,
    "Community Board":105,
    "Council District":3
    }
  },
  {
    "type": "Feature",
    "geometry": {
       "type": "Point",
       "coordinates":  [ -73.9871434,40.7804721 ]
    },
    "properties": {
    "Permit_Type":"Indoor",
    "Facility_Name":"THE HERITAGE AT TRUMP PLACE CONDOMINIUM",
    "Category":"Private Res.",
    "ADDRESS_ No":"240",
    "ADDRESS_St":"RIVERSIDE BOULEVARD",
    "BO":"MA",
    "ZIP":10069,
    "Community Board":107,
    "Council District":6
    }
  },
  {
    "type": "Feature",
    "geometry": {
       "type": "Point",
       "coordinates":  [ -73.9873973,40.7798567 ]
    },
    "properties": {
    "Permit_Type":"Indoor",
    "Facility_Name":"220 RIVERSIDE BLVD AT TRUMP PLACE CONDOMINIUM",
    "Category":"Private Res.",
    "ADDRESS_ No":"220",
    "ADDRESS_St":"RIVERSIDE BOULEVARD",
    "BO":"MA",
    "ZIP":10069,
    "Community Board":107,
    "Council District":6
    }
  },
  {
    "type": "Feature",
    "geometry": {
       "type": "Point",
       "coordinates":  [ -73.987686,40.778991 ]
    },
    "properties": {
    "Permit_Type":"Indoor",
    "Facility_Name":"200 RIVERSIDE BLVD AT TRUMP PLACE CONDOMINIUM",
    "Category":"Private Res.",
    "ADDRESS_ No":"200",
    "ADDRESS_St":"RIVERSIDE BOULEVARD",
    "BO":"MA",
    "ZIP":10069,
    "Community Board":107,
    "Council District":6
    }
  },
  {
    "type": "Feature",
    "geometry": {
       "type": "Point",
       "coordinates":  [ -73.9891093,40.7763767 ]
    },
    "properties": {
    "Permit_Type":"Indoor",
    "Facility_Name":"120 RIVERSIDE BLVD AT TRUMP PLACE CONDOMINIUM",
    "Category":"Private Res.",
    "ADDRESS_ No":"120",
    "ADDRESS_St":"RIVERSIDE BOULEVARD",
    "BO":"MA",
    "ZIP":10069,
    "Community Board":107,
    "Council District":6
    }
  },
  {
    "type": "Feature",
    "geometry": {
       "type": "Point",
       "coordinates":  [ -73.9886583,40.7719173 ]
    },
    "properties": {
    "Permit_Type":"Indoor",
    "Facility_Name":"WEST 60TH STREET ASSOCIATES LLC",
    "Category":"Private Res.",
    "ADDRESS_ No":"229",
    "ADDRESS_St":"WEST 60 STREET",
    "BO":"MA",
    "ZIP":10023,
    "Community Board":107,
    "Council District":6
    }
  },
  {
    "type": "Feature",
    "geometry": {
       "type": "Point",
       "coordinates":  [ -73.9768734,40.7890087 ]
    },
    "properties": {
    "Permit_Type":"Indoor",
    "Facility_Name":"BOULEVARD HOUSING CORP",
    "Category":"Private Res.",
    "ADDRESS_ No":"2373",
    "ADDRESS_St":"BROADWAY",
    "BO":"MA",
    "ZIP":10024,
    "Community Board":107,
    "Council District":6
    }
  },
  {
    "type": "Feature",
    "geometry": {
       "type": "Point",
       "coordinates":  [ -73.9704044,40.7529103 ]
    },
    "properties": {
    "Permit_Type":"Indoor",
    "Facility_Name":"DAG HAMMARSKJOLD TOWER CONDOMINIUM",
    "Category":"Private Res.",
    "ADDRESS_ No":"240",
    "ADDRESS_St":"EAST 47 STREET",
    "BO":"MA",
    "ZIP":10017,
    "Community Board":106,
    "Council District":4
    }
  },
  {
    "type": "Feature",
    "geometry": {
       "type": "Point",
       "coordinates":  [ -74.0123802,40.7167836 ]
    },
    "properties": {
    "Permit_Type":"Indoor",
    "Facility_Name":"200 CHAMBERS STREET CONDOMINIUM",
    "Category":"Private Res.",
    "ADDRESS_ No":"200",
    "ADDRESS_St":"CHAMBERS STREET",
    "BO":"MA",
    "ZIP":10007,
    "Community Board":101,
    "Council District":1
    }
  },
  {
    "type": "Feature",
    "geometry": {
       "type": "Point",
       "coordinates":  [ -73.9608256,40.7978157 ]
    },
    "properties": {
    "Permit_Type":"Indoor",
    "Facility_Name":"455 CENTRAL PARK WEST CONDOMINIUM",
    "Category":"Private Res.",
    "ADDRESS_ No":"455",
    "ADDRESS_St":"CENTRAL PARK WEST",
    "BO":"MA",
    "ZIP":10025,
    "Community Board":107,
    "Council District":7
    }
  },
  {
    "type": "Feature",
    "geometry": {
       "type": "Point",
       "coordinates":  [ -74.0067829,40.70985 ]
    },
    "properties": {
    "Permit_Type":"Indoor",
    "Facility_Name":"111 FULTON STREET CONDOMINIUM",
    "Category":"Private Res.",
    "ADDRESS_ No":"111",
    "ADDRESS_St":"FULTON STREET",
    "BO":"MA",
    "ZIP":10038,
    "Community Board":101,
    "Council District":1
    }
  },
  {
    "type": "Feature",
    "geometry": {
       "type": "Point",
       "coordinates":  [ -73.9895943,40.7715251 ]
    },
    "properties": {
    "Permit_Type":"Indoor",
    "Facility_Name":"ELEMENT CONDOMINIUM",
    "Category":"Private Res.",
    "ADDRESS_ No":"555",
    "ADDRESS_St":"WEST 59 STREET",
    "BO":"MA",
    "ZIP":10019,
    "Community Board":107,
    "Council District":6
    }
  },
  {
    "type": "Feature",
    "geometry": {
       "type": "Point",
       "coordinates":  [ -73.989126099999993,40.7348397 ]
    },
    "properties": {
    "Permit_Type":"Indoor",
    "Facility_Name":"ONE UNION SQUARE EAST CONDOMINIUM",
    "Category":"Private Res.",
    "ADDRESS_ No":"1",
    "ADDRESS_St":"IRVING PLACE",
    "BO":"MA",
    "ZIP":10003,
    "Community Board":105,
    "Council District":2
    }
  },
  {
    "type": "Feature",
    "geometry": {
       "type": "Point",
       "coordinates":  [ -74.0103402,40.7052538 ]
    },
    "properties": {
    "Permit_Type":"Indoor",
    "Facility_Name":"15 WILLIAM STREET CONDOMINIUM",
    "Category":"Private Res.",
    "ADDRESS_ No":"15",
    "ADDRESS_St":"WILLIAM STREET",
    "BO":"MA",
    "ZIP":10004,
    "Community Board":101,
    "Council District":1
    }
  },
  {
    "type": "Feature",
    "geometry": {
       "type": "Point",
       "coordinates":  [ -74.010457,40.7067114 ]
    },
    "properties": {
    "Permit_Type":"Indoor",
    "Facility_Name":"THE DOWNTOWN CONDOMINIUM",
    "Category":"Private Res.",
    "ADDRESS_ No":"15",
    "ADDRESS_St":"BROAD STREET",
    "BO":"MA",
    "ZIP":10005,
    "Community Board":101,
    "Council District":1
    }
  },
  {
    "type": "Feature",
    "geometry": {
       "type": "Point",
       "coordinates":  [ -74.0009575,40.7212792 ]
    },
    "properties": {
    "Permit_Type":"Indoor",
    "Facility_Name":"40 MERCER STREET CONDOMINIUM",
    "Category":"Private Res.",
    "ADDRESS_ No":"40",
    "ADDRESS_St":"MERCER STREET",
    "BO":"MA",
    "ZIP":10013,
    "Community Board":102,
    "Council District":1
    }
  },
  {
    "type": "Feature",
    "geometry": {
       "type": "Point",
       "coordinates":  [ -73.9582092,40.7643363 ]
    },
    "properties": {
    "Permit_Type":"Indoor",
    "Facility_Name":"THE LAUREL CONDOMINIUM",
    "Category":"Private Res.",
    "ADDRESS_ No":"400",
    "ADDRESS_St":"EAST 67 STREET",
    "BO":"MA",
    "ZIP":10065,
    "Community Board":108,
    "Council District":5
    }
  },
  {
    "type": "Feature",
    "geometry": {
       "type": "Point",
       "coordinates":  [ -73.9977459,40.7608599 ]
    },
    "properties": {
    "Permit_Type":"Indoor",
    "Facility_Name":"RIVERBANK WEST",
    "Category":"Private Res.",
    "ADDRESS_ No":"555",
    "ADDRESS_St":"WEST 42 STREET",
    "BO":"MA",
    "ZIP":10036,
    "Community Board":104,
    "Council District":3
    }
  },
  {
    "type": "Feature",
    "geometry": {
       "type": "Point",
       "coordinates":  [ -73.9890863,40.748454 ]
    },
    "properties": {
    "Permit_Type":"Indoor",
    "Facility_Name":"TOWER 111 LLC",
    "Category":"Private Res.",
    "ADDRESS_ No":"885",
    "ADDRESS_St":"AVENUE OF THE AMERICAS",
    "BO":"MA",
    "ZIP":10001,
    "Community Board":105,
    "Council District":3
    }
  },
  {
    "type": "Feature",
    "geometry": {
       "type": "Point",
       "coordinates":  [ -73.9445971,40.8025728 ]
    },
    "properties": {
    "Permit_Type":"Indoor",
    "Facility_Name":"FIFTH ON THE PARK CONDOMINIUM",
    "Category":"Private Res.",
    "ADDRESS_ No":"1481",
    "ADDRESS_St":"5 AVENUE",
    "BO":"MA",
    "ZIP":10035,
    "Community Board":111,
    "Council District":9
    }
  },
  {
    "type": "Feature",
    "geometry": {
       "type": "Point",
       "coordinates":  [ -73.9797494,40.7818469 ]
    },
    "properties": {
    "Permit_Type":"Indoor",
    "Facility_Name":"PURE 76TH STREET INC",
    "Category":"Private Res.",
    "ADDRESS_ No":"204",
    "ADDRESS_St":"WEST 77 STREET",
    "BO":"MA",
    "ZIP":10024,
    "Community Board":107,
    "Council District":6
    }
  },
  {
    "type": "Feature",
    "geometry": {
       "type": "Point",
       "coordinates":  [ -73.9737789,40.7375525 ]
    },
    "properties": {
    "Permit_Type":"Indoor",
    "Facility_Name":"WATERSIDE PLAZA LLC",
    "Category":"Private Res.",
    "ADDRESS_ No":"30",
    "ADDRESS_St":"WATERSIDE PLAZA",
    "BO":"MA",
    "ZIP":10010,
    "Community Board":106,
    "Council District":4
    }
  },
  {
    "type": "Feature",
    "geometry": {
       "type": "Point",
       "coordinates":  [ -73.9646707,40.7593798 ]
    },
    "properties": {
    "Permit_Type":"Indoor",
    "Facility_Name":"301 EAST 57 STREET GYM LLC",
    "Category":"Private Res.",
    "ADDRESS_ No":"301",
    "ADDRESS_St":"EAST 57 STREET",
    "BO":"MA",
    "ZIP":10022,
    "Community Board":106,
    "Council District":5
    }
  },
  {
    "type": "Feature",
    "geometry": {
       "type": "Point",
       "coordinates":  [ -73.9558279,40.7717489 ]
    },
    "properties": {
    "Permit_Type":"Indoor",
    "Facility_Name":"THE SEVILLE CONDOMINIUM OF SOLSTICE RESIDENTIAL",
    "Category":"Private Res.",
    "ADDRESS_ No":"300",
    "ADDRESS_St":"EAST 77 STREET",
    "BO":"MA",
    "ZIP":10021,
    "Community Board":108,
    "Council District":5
    }
  },
  {
    "type": "Feature",
    "geometry": {
       "type": "Point",
       "coordinates":  [ -73.9861769,40.7609184 ]
    },
    "properties": {
    "Permit_Type":"Indoor",
    "Facility_Name":"CS RITZ RESIDENTS LLC",
    "Category":"Private Res.",
    "ADDRESS_ No":"235",
    "ADDRESS_St":"WEST 48 STREET",
    "BO":"MA",
    "ZIP":10036,
    "Community Board":105,
    "Council District":3
    }
  },
  {
    "type": "Feature",
    "geometry": {
       "type": "Point",
       "coordinates":  [ -74.0068304,40.7074723 ]
    },
    "properties": {
    "Permit_Type":"Indoor",
    "Facility_Name":"2 GOLD LLC",
    "Category":"Private Res.",
    "ADDRESS_ No":"2",
    "ADDRESS_St":"GOLD STREET",
    "BO":"MA",
    "ZIP":10038,
    "Community Board":101,
    "Council District":1
    }
  },
  {
    "type": "Feature",
    "geometry": {
       "type": "Point",
       "coordinates":  [ -73.9947104,40.7430565 ]
    },
    "properties": {
    "Permit_Type":"Indoor",
    "Facility_Name":"133 WEST 22ND STREET CONDOMINIUM",
    "Category":"Private Res.",
    "ADDRESS_ No":"133",
    "ADDRESS_St":"WEST 22 STREET",
    "BO":"MA",
    "ZIP":10011,
    "Community Board":104,
    "Council District":3
    }
  },
  {
    "type": "Feature",
    "geometry": {
       "type": "Point",
       "coordinates":  [ -73.9912442,40.7265231 ]
    },
    "properties": {
    "Permit_Type":"Outdoor",
    "Facility_Name":"52 EAST 4TH STREET CONDOMINIUM",
    "Category":"Private Res.",
    "ADDRESS_ No":"52",
    "ADDRESS_St":"EAST 4 STREET",
    "BO":"MA",
    "ZIP":10003,
    "Community Board":103,
    "Council District":2
    }
  },
  {
    "type": "Feature",
    "geometry": {
       "type": "Point",
       "coordinates":  [ -73.9856816,40.7702842 ]
    },
    "properties": {
    "Permit_Type":"Indoor",
    "Facility_Name":"PARK SOUTH TOWER ASSOCIATED LLC",
    "Category":"Private Res.",
    "ADDRESS_ No":"124",
    "ADDRESS_St":"WEST 60 STREET",
    "BO":"MA",
    "ZIP":10023,
    "Community Board":107,
    "Council District":3
    }
  },
  {
    "type": "Feature",
    "geometry": {
       "type": "Point",
       "coordinates":  [ -73.9782788,40.7885962 ]
    },
    "properties": {
    "Permit_Type":"Indoor",
    "Facility_Name":"535 WEST END AVENUE CONDOMINIUM",
    "Category":"Private Res.",
    "ADDRESS_ No":"531",
    "ADDRESS_St":"WEST END AVENUE",
    "BO":"MA",
    "ZIP":10023,
    "Community Board":107,
    "Council District":6
    }
  },
  {
    "type": "Feature",
    "geometry": {
       "type": "Point",
       "coordinates":  [ -73.9619468,40.7684633 ]
    },
    "properties": {
    "Permit_Type":"Indoor",
    "Facility_Name":"188 E. 70TH STREET CONDOMINIUM ASSOC",
    "Category":"Private Res.",
    "ADDRESS_ No":"188",
    "ADDRESS_St":"EAST 70 STREET",
    "BO":"MA",
    "ZIP":10021,
    "Community Board":108,
    "Council District":4
    }
  },
  {
    "type": "Feature",
    "geometry": {
       "type": "Point",
       "coordinates":  [ -73.962547,40.778004 ]
    },
    "properties": {
    "Permit_Type":"Indoor",
    "Facility_Name":"995 FIFTH AVENUE OWNERS CORP.",
    "Category":"Private Res.",
    "ADDRESS_ No":"995",
    "ADDRESS_St":"5 AVENUE",
    "BO":"MA",
    "ZIP":10028,
    "Community Board":108,
    "Council District":4
    }
  },
  {
    "type": "Feature",
    "geometry": {
       "type": "Point",
       "coordinates":  [ -74.0096766,40.7075665 ]
    },
    "properties": {
    "Permit_Type":"Indoor",
    "Facility_Name":"THE 20 PINE STREET CONDOMINIUM",
    "Category":"Private Res.",
    "ADDRESS_ No":"20",
    "ADDRESS_St":"PINE STREET",
    "BO":"MA",
    "ZIP":10005,
    "Community Board":101,
    "Council District":1
    }
  },
  {
    "type": "Feature",
    "geometry": {
       "type": "Point",
       "coordinates":  [ -74.0015965,40.7467765 ]
    },
    "properties": {
    "Permit_Type":"Indoor",
    "Facility_Name":"LONDON TERRACE TOWERS OWNERS INC",
    "Category":"Private Res.",
    "ADDRESS_ No":"405-465",
    "ADDRESS_St":"WEST 23 STREET",
    "BO":"MA",
    "ZIP":10011,
    "Community Board":104,
    "Council District":3
    }
  },
  {
    "type": "Feature",
    "geometry": {
       "type": "Point",
       "coordinates":  [ -73.9900505,40.7717454 ]
    },
    "properties": {
    "Permit_Type":"Indoor",
    "Facility_Name":"10 WEST END AVENUE CONDOMINIUM",
    "Category":"Private Res.",
    "ADDRESS_ No":"10",
    "ADDRESS_St":"WEST END AVENUE",
    "BO":"MA",
    "ZIP":10023,
    "Community Board":107,
    "Council District":6
    }
  },
  {
    "type": "Feature",
    "geometry": {
       "type": "Point",
       "coordinates":  [ -73.9818968,40.730371 ]
    },
    "properties": {
    "Permit_Type":"Outdoor",
    "Facility_Name":"A BUILDING CONDOMINIUM",
    "Category":"Private Res.",
    "ADDRESS_ No":"425",
    "ADDRESS_St":"EAST 13 STREET",
    "BO":"MA",
    "ZIP":10009,
    "Community Board":103,
    "Council District":2
    }
  },
  {
    "type": "Feature",
    "geometry": {
       "type": "Point",
       "coordinates":  [ -74.0077256,40.7461564 ]
    },
    "properties": {
    "Permit_Type":"Indoor",
    "Facility_Name":"100 ELEVENTH AVENUE CONDOMINIUM",
    "Category":"Private Res.",
    "ADDRESS_ No":"100",
    "ADDRESS_St":"11 AVENUE",
    "BO":"MA",
    "ZIP":10011,
    "Community Board":104,
    "Council District":3
    }
  },
  {
    "type": "Feature",
    "geometry": {
       "type": "Point",
       "coordinates":  [ -73.9610896,40.7631464 ]
    },
    "properties": {
    "Permit_Type":"Outdoor",
    "Facility_Name":"THE ST TROPEZ CONDOMINIUM",
    "Category":"Private Res.",
    "ADDRESS_ No":"340",
    "ADDRESS_St":"EAST 64 STREET",
    "BO":"MA",
    "ZIP":10065,
    "Community Board":108,
    "Council District":5
    }
  },
  {
    "type": "Feature",
    "geometry": {
       "type": "Point",
       "coordinates":  [ -73.9889254,40.7407768 ]
    },
    "properties": {
    "Permit_Type":"Indoor",
    "Facility_Name":"MADISON GREEN CONDOMINIUM ASSOCIATE",
    "Category":"Private Res.",
    "ADDRESS_ No":"5",
    "ADDRESS_St":"EAST 22 STREET",
    "BO":"MA",
    "ZIP":10010,
    "Community Board":105,
    "Council District":2
    }
  },
  {
    "type": "Feature",
    "geometry": {
       "type": "Point",
       "coordinates":  [ -73.9840606,40.7670037 ]
    },
    "properties": {
    "Permit_Type":"Indoor",
    "Facility_Name":"THE 322 WEST 57TH STREET CONDOMINIUM",
    "Category":"Private Res.",
    "ADDRESS_ No":"322",
    "ADDRESS_St":"WEST 57 STREET",
    "BO":"MA",
    "ZIP":10019,
    "Community Board":104,
    "Council District":3
    }
  },
  {
    "type": "Feature",
    "geometry": {
       "type": "Point",
       "coordinates":  [ -73.9858725,40.7715383 ]
    },
    "properties": {
    "Permit_Type":"Indoor",
    "Facility_Name":"THE ALFRED CONDOMINIUM",
    "Category":"Private Res.",
    "ADDRESS_ No":"161",
    "ADDRESS_St":"WEST 61 STREET",
    "BO":"MA",
    "ZIP":10023,
    "Community Board":107,
    "Council District":3
    }
  },
  {
    "type": "Feature",
    "geometry": {
       "type": "Point",
       "coordinates":  [ -73.9492909,40.7962984 ]
    },
    "properties": {
    "Permit_Type":"Outdoor",
    "Facility_Name":"1280 FIFTH CONDOMINUM",
    "Category":"Private Res.",
    "ADDRESS_ No":"1280",
    "ADDRESS_St":"5 AVENUE",
    "BO":"MA",
    "ZIP":10029,
    "Community Board":111,
    "Council District":9
    }
  },
  {
    "type": "Feature",
    "geometry": {
       "type": "Point",
       "coordinates":  [ -73.9745777,40.7926937 ]
    },
    "properties": {
    "Permit_Type":"Indoor",
    "Facility_Name":"WINDERMERE OWNERS LLC",
    "Category":"Private Res.",
    "ADDRESS_ No":"666",
    "ADDRESS_St":"WEST END AVENUE",
    "BO":"MA",
    "ZIP":10025,
    "Community Board":107,
    "Council District":6
    }
  },
  {
    "type": "Feature",
    "geometry": {
       "type": "Point",
       "coordinates":  [ -74.0087585,40.7377131 ]
    },
    "properties": {
    "Permit_Type":"Outdoor",
    "Facility_Name":"385 WEST 12TH STSREET CONDOMINIUM",
    "Category":"Private Res.",
    "ADDRESS_ No":"385",
    "ADDRESS_St":"WEST 12 STREET",
    "BO":"MA",
    "ZIP":10014,
    "Community Board":102,
    "Council District":3
    }
  },
  {
    "type": "Feature",
    "geometry": {
       "type": "Point",
       "coordinates":  [ -73.9525831,40.7913408 ]
    },
    "properties": {
    "Permit_Type":"Indoor",
    "Facility_Name":"1214 FIFTH AVENUE",
    "Category":"Private Res.",
    "ADDRESS_ No":"1214",
    "ADDRESS_St":"5 AVENUE",
    "BO":"MA",
    "ZIP":10029,
    "Community Board":111,
    "Council District":8
    }
  },
  {
    "type": "Feature",
    "geometry": {
       "type": "Point",
       "coordinates":  [ -74.0176642,40.7112473 ]
    },
    "properties": {
    "Permit_Type":"Outdoor",
    "Facility_Name":"MARINA TOWER ASSOCIATES L.P.",
    "Category":"Private Res.",
    "ADDRESS_ No":"375",
    "ADDRESS_St":"SOUTH END AVENUE",
    "BO":"MA",
    "ZIP":10280,
    "Community Board":101,
    "Council District":1
    }
  },
  {
    "type": "Feature",
    "geometry": {
       "type": "Point",
       "coordinates":  [ -73.9934825,40.7303006 ]
    },
    "properties": {
    "Permit_Type":"Outdoor",
    "Facility_Name":"HILARY GARDENS COMPANY LLC",
    "Category":"Private Res.",
    "ADDRESS_ No":"300",
    "ADDRESS_St":"MERCER STREET",
    "BO":"MA",
    "ZIP":10003,
    "Community Board":102,
    "Council District":1
    }
  },
  {
    "type": "Feature",
    "geometry": {
       "type": "Point",
       "coordinates":  [ -74.0056438,40.7110926 ]
    },
    "properties": {
    "Permit_Type":"Indoor",
    "Facility_Name":"FC 8 SPRUCE STREET RESIDENTIAL LLC",
    "Category":"Private Res.",
    "ADDRESS_ No":"8",
    "ADDRESS_St":"SPRUCE STREET",
    "BO":"MA",
    "ZIP":10038,
    "Community Board":101,
    "Council District":1
    }
  },
  {
    "type": "Feature",
    "geometry": {
       "type": "Point",
       "coordinates":  [ -74.0056207,40.7213581 ]
    },
    "properties": {
    "Permit_Type":"Outdoor",
    "Facility_Name":"ONE YORK STREET CONDOMINIUM",
    "Category":"Private Res.",
    "ADDRESS_ No":"1",
    "ADDRESS_St":"YORK STREET",
    "BO":"MA",
    "ZIP":10013,
    "Community Board":101,
    "Council District":1
    }
  },
  {
    "type": "Feature",
    "geometry": {
       "type": "Point",
       "coordinates":  [ -73.9527719,40.7666839 ]
    },
    "properties": {
    "Permit_Type":"Indoor",
    "Facility_Name":"515 EAST 72ND STREET CONDOMINIUM",
    "Category":"Private Res.",
    "ADDRESS_ No":"515",
    "ADDRESS_St":"EAST 72 STREET",
    "BO":"MA",
    "ZIP":10021,
    "Community Board":108,
    "Council District":5
    }
  },
  {
    "type": "Feature",
    "geometry": {
       "type": "Point",
       "coordinates":  [ -73.9595399,40.7596752 ]
    },
    "properties": {
    "Permit_Type":"Indoor",
    "Facility_Name":"SECOND AVENUE SOLOW DEVELOPMENT CORPORATION",
    "Category":"Private Res.",
    "ADDRESS_ No":"1113",
    "ADDRESS_St":"YORK AVENUE",
    "BO":"MA",
    "ZIP":10065,
    "Community Board":108,
    "Council District":5
    }
  },
  {
    "type": "Feature",
    "geometry": {
       "type": "Point",
       "coordinates":  [ -74.0093524,40.7229769 ]
    },
    "properties": {
    "Permit_Type":"Indoor",
    "Facility_Name":"SGN 443 GREENWICH STREET OWNER LLC",
    "Category":"Private Res.",
    "ADDRESS_ No":"443",
    "ADDRESS_St":"GREENWICH STREET",
    "BO":"MA",
    "ZIP":10013,
    "Community Board":101,
    "Council District":1
    }
  },
  {
    "type": "Feature",
    "geometry": {
       "type": "Point",
       "coordinates":  [ -74.0176642,40.7112473 ]
    },
    "properties": {
    "Permit_Type":"Indoor",
    "Facility_Name":"MARINA TOWER ASSOCIATES LP",
    "Category":"Private Res.",
    "ADDRESS_ No":"375",
    "ADDRESS_St":"SOUTH END AVENUE",
    "BO":"MA",
    "ZIP":10280,
    "Community Board":101,
    "Council District":1
    }
  },
  {
    "type": "Feature",
    "geometry": {
       "type": "Point",
       "coordinates":  [ -73.9860291,40.7719873 ]
    },
    "properties": {
    "Permit_Type":"Indoor",
    "Facility_Name":"WEST 62ND STREET DEVELOPMENT LLC",
    "Category":"Private Res.",
    "ADDRESS_ No":"160",
    "ADDRESS_St":"WEST 62 STREET",
    "BO":"MA",
    "ZIP":10023,
    "Community Board":107,
    "Council District":3
    }
  },
  {
    "type": "Feature",
    "geometry": {
       "type": "Point",
       "coordinates":  [ -73.9906177,40.7729122 ]
    },
    "properties": {
    "Permit_Type":"Indoor",
    "Facility_Name":"RIVERSIDE CENTER PARCEL 2 BIT ASSOCIATES LLC",
    "Category":"Private Res.",
    "ADDRESS_ No":"21",
    "ADDRESS_St":"WEST END AVENUE",
    "BO":"MA",
    "ZIP":10023,
    "Community Board":107,
    "Council District":6
    }
  },
  {
    "type": "Feature",
    "geometry": {
       "type": "Point",
       "coordinates":  [ -73.9963346,40.75893 ]
    },
    "properties": {
    "Permit_Type":"Indoor",
    "Facility_Name":"EXTELL 4110 LLC",
    "Category":"Private Res.",
    "ADDRESS_ No":"555",
    "ADDRESS_St":"10 AVENUE",
    "BO":"MA",
    "ZIP":10018,
    "Community Board":104,
    "Council District":3
    }
  },
  {
    "type": "Feature",
    "geometry": {
       "type": "Point",
       "coordinates":  [ -74.0150054,40.7080189 ]
    },
    "properties": {
    "Permit_Type":"Indoor",
    "Facility_Name":"50 WEST DEVELOPMENT LLC",
    "Category":"Private Res.",
    "ADDRESS_ No":"50",
    "ADDRESS_St":"WEST STREET",
    "BO":"MA",
    "ZIP":10006,
    "Community Board":101,
    "Council District":1
    }
  },
  {
    "type": "Feature",
    "geometry": {
       "type": "Point",
       "coordinates":  [ -73.991235,40.710456 ]
    },
    "properties": {
    "Permit_Type":"Indoor",
    "Facility_Name":"SOUTH AND CHERRY CONDOMINIUM",
    "Category":"Private Res.",
    "ADDRESS_ No":"252",
    "ADDRESS_St":"SOUTH STREET",
    "BO":"MA",
    "ZIP":10002,
    "Community Board":103,
    "Council District":1
    }
  },
  {
    "type": "Feature",
    "geometry": {
       "type": "Point",
       "coordinates":  [ -74.0053045,40.7138672 ]
    },
    "properties": {
    "Permit_Type":"Indoor",
    "Facility_Name":"49-51 CHAMBERS LLC",
    "Category":"Private Res.",
    "ADDRESS_ No":"51",
    "ADDRESS_St":"CHAMBERS STREET",
    "BO":"MA",
    "ZIP":10007,
    "Community Board":101,
    "Council District":1
    }
  },
  {
    "type": "Feature",
    "geometry": {
       "type": "Point",
       "coordinates":  [ -74.0096815,40.7341445 ]
    },
    "properties": {
    "Permit_Type":"Indoor",
    "Facility_Name":"165 CHARLES STREET CONDOMINIUM",
    "Category":"Private Res.",
    "ADDRESS_ No":"165",
    "ADDRESS_St":"CHARLES STREET",
    "BO":"MA",
    "ZIP":10014,
    "Community Board":102,
    "Council District":3
    }
  },
  {
    "type": "Feature",
    "geometry": {
       "type": "Point",
       "coordinates":  [ -73.9963346,40.75893 ]
    },
    "properties": {
    "Permit_Type":"Outdoor",
    "Facility_Name":"EXTELL 4110 LLC",
    "Category":"Private Res.",
    "ADDRESS_ No":"555",
    "ADDRESS_St":"10 AVENUE",
    "BO":"MA",
    "ZIP":10018,
    "Community Board":104,
    "Council District":3
    }
  },
  {
    "type": "Feature",
    "geometry": {
       "type": "Point",
       "coordinates":  [ -73.9881731,40.7403023 ]
    },
    "properties": {
    "Permit_Type":"Indoor",
    "Facility_Name":"RELATED MANAGEMENTS COMPANY LP AGENT FOR ONE MADISON PARK CONDOMINIUM",
    "Category":"Private Res.",
    "ADDRESS_ No":"23",
    "ADDRESS_St":"EAST 22 STREET",
    "BO":"MA",
    "ZIP":10010,
    "Community Board":105,
    "Council District":2
    }
  },
  {
    "type": "Feature",
    "geometry": {
       "type": "Point",
       "coordinates":  [ -73.9725462,40.7447746 ]
    },
    "properties": {
    "Permit_Type":"Indoor",
    "Facility_Name":"616 FIRST AVENUE LLC",
    "Category":"Private Res.",
    "ADDRESS_ No":"626",
    "ADDRESS_St":"1 AVENUE",
    "BO":"MA",
    "ZIP":10016,
    "Community Board":106,
    "Council District":4
    }
  },
  {
    "type": "Feature",
    "geometry": {
       "type": "Point",
       "coordinates":  [ -74.0112445,40.7218497 ]
    },
    "properties": {
    "Permit_Type":"Indoor",
    "Facility_Name":"250 WEST STREET CONDOMINIUM",
    "Category":"Private Res.",
    "ADDRESS_ No":"250",
    "ADDRESS_St":"WEST STREET",
    "BO":"MA",
    "ZIP":10013,
    "Community Board":101,
    "Council District":1
    }
  },
  {
    "type": "Feature",
    "geometry": {
       "type": "Point",
       "coordinates":  [ -73.9715112,40.758293 ]
    },
    "properties": {
    "Permit_Type":"Indoor",
    "Facility_Name":"610 LEXINGTON PROPERTY LLC",
    "Category":"Private Res.",
    "ADDRESS_ No":"610",
    "ADDRESS_St":"LEXINGTON AVENUE",
    "BO":"MA",
    "ZIP":10022,
    "Community Board":105,
    "Council District":4
    }
  },
  {
    "type": "Feature",
    "geometry": {
       "type": "Point",
       "coordinates":  [ -73.9800842,40.7300518 ]
    },
    "properties": {
    "Permit_Type":"Indoor",
    "Facility_Name":"EAST VILLAGE 14 LLC",
    "Category":"Private Res.",
    "ADDRESS_ No":"500",
    "ADDRESS_St":"EAST 14 STREET",
    "BO":"MA",
    "ZIP":10009,
    "Community Board":103,
    "Council District":2
    }
  },
  {
    "type": "Feature",
    "geometry": {
       "type": "Point",
       "coordinates":  [ -74.0029218,40.751033 ]
    },
    "properties": {
    "Permit_Type":"Indoor",
    "Facility_Name":"28TH HIGHLINE ASSOCIATE",
    "Category":"Private Res.",
    "ADDRESS_ No":"520",
    "ADDRESS_St":"WEST 28 STREET",
    "BO":"MA",
    "ZIP":10001,
    "Community Board":104,
    "Council District":3
    }
  },
  {
    "type": "Feature",
    "geometry": {
       "type": "Point",
       "coordinates":  [ -74.0117654,40.7060275 ]
    },
    "properties": {
    "Permit_Type":"Indoor",
    "Facility_Name":"40 BROAD SPA OWNER LLC",
    "Category":"Private Res.",
    "ADDRESS_ No":"40",
    "ADDRESS_St":"BROAD STREET",
    "BO":"MA",
    "ZIP":10004,
    "Community Board":101,
    "Council District":1
    }
  },
  {
    "type": "Feature",
    "geometry": {
       "type": "Point",
       "coordinates":  [ -74.0077715,40.7065047 ]
    },
    "properties": {
    "Permit_Type":"Indoor",
    "Facility_Name":"EBNB 70 PINE OWNER LLC",
    "Category":"Private Res.",
    "ADDRESS_ No":"70",
    "ADDRESS_St":"PINE STREET",
    "BO":"MA",
    "ZIP":10270,
    "Community Board":101,
    "Council District":1
    }
  },
  {
    "type": "Feature",
    "geometry": {
       "type": "Point",
       "coordinates":  [ -73.9634835,40.7649552 ]
    },
    "properties": {
    "Permit_Type":"Indoor",
    "Facility_Name":"200-210 EAST 65 STREET CONDOMINIUM",
    "Category":"Private Res.",
    "ADDRESS_ No":"200",
    "ADDRESS_St":"EAST 65 STREET",
    "BO":"MA",
    "ZIP":10021,
    "Community Board":108,
    "Council District":4
    }
  },
  {
    "type": "Feature",
    "geometry": {
       "type": "Point",
       "coordinates":  [ -73.9878467,40.7217549 ]
    },
    "properties": {
    "Permit_Type":"Outdoor",
    "Facility_Name":"180 ORCHARD OWNER LLC",
    "Category":"Private Res.",
    "ADDRESS_ No":"171",
    "ADDRESS_St":"LUDLOW STREET",
    "BO":"MA",
    "ZIP":10002,
    "Community Board":103,
    "Council District":1
    }
  },
  {
    "type": "Feature",
    "geometry": {
       "type": "Point",
       "coordinates":  [ -73.987181,40.748396 ]
    },
    "properties": {
    "Permit_Type":"Indoor",
    "Facility_Name":"38-46 WEST 33RD ST. LLC",
    "Category":"Private Res.",
    "ADDRESS_ No":"42",
    "ADDRESS_St":"WEST 33 STREET",
    "BO":"MA",
    "ZIP":10001,
    "Community Board":105,
    "Council District":4
    }
  },
  {
    "type": "Feature",
    "geometry": {
       "type": "Point",
       "coordinates":  [ -73.9917033,40.7358934 ]
    },
    "properties": {
    "Permit_Type":"Indoor",
    "Facility_Name":"15 UNION SQUARE WEST CONDOMINIUM",
    "Category":"Private Res.",
    "ADDRESS_ No":"15",
    "ADDRESS_St":"UNION SQUARE WEST",
    "BO":"MA",
    "ZIP":10003,
    "Community Board":105,
    "Council District":2
    }
  },
  {
    "type": "Feature",
    "geometry": {
       "type": "Point",
       "coordinates":  [ -73.9809266,40.7619289 ]
    },
    "properties": {
    "Permit_Type":"Indoor",
    "Facility_Name":"135 WEST STREET CONDOMINIUM",
    "Category":"Private Res.",
    "ADDRESS_ No":"135",
    "ADDRESS_St":"WEST 52 STREET",
    "BO":"MA",
    "ZIP":10019,
    "Community Board":105,
    "Council District":4
    }
  },
  {
    "type": "Feature",
    "geometry": {
       "type": "Point",
       "coordinates":  [ -73.988229,40.762492 ]
    },
    "properties": {
    "Permit_Type":"Indoor",
    "Facility_Name":"99TH AVENUE HOLDING LLC",
    "Category":"Private Res.",
    "ADDRESS_ No":"355",
    "ADDRESS_St":"WEST 49 STREET",
    "BO":"MA",
    "ZIP":10019,
    "Community Board":104,
    "Council District":3
    }
  },
  {
    "type": "Feature",
    "geometry": {
       "type": "Point",
       "coordinates":  [ -74.0089966,40.7338121 ]
    },
    "properties": {
    "Permit_Type":"Indoor",
    "Facility_Name":"150 CHARLES STREET CONDOMINIUM",
    "Category":"Private Res.",
    "ADDRESS_ No":"150",
    "ADDRESS_St":"CHARLES STREET",
    "BO":"MA",
    "ZIP":10014,
    "Community Board":102,
    "Council District":3
    }
  },
  {
    "type": "Feature",
    "geometry": {
       "type": "Point",
       "coordinates":  [ -73.9717602,40.761648 ]
    },
    "properties": {
    "Permit_Type":"Indoor",
    "Facility_Name":"56TH AND PARK (NY) OWNER LLC",
    "Category":"Private Res.",
    "ADDRESS_ No":"432",
    "ADDRESS_St":"PARK AVENUE",
    "BO":"MA",
    "ZIP":10022,
    "Community Board":105,
    "Council District":4
    }
  },
  {
    "type": "Feature",
    "geometry": {
       "type": "Point",
       "coordinates":  [ -73.96837,40.7517372 ]
    },
    "properties": {
    "Permit_Type":"Indoor",
    "Facility_Name":"50 UNITED NATIONS PLAZA CONDOMINIUM",
    "Category":"Private Res.",
    "ADDRESS_ No":"345",
    "ADDRESS_St":"EAST 46 STREET",
    "BO":"MA",
    "ZIP":10017,
    "Community Board":106,
    "Council District":4
    }
  },
  {
    "type": "Feature",
    "geometry": {
       "type": "Point",
       "coordinates":  [ -74.0099347,40.730409 ]
    },
    "properties": {
    "Permit_Type":"Indoor",
    "Facility_Name":"160 LEROY LLC",
    "Category":"Private Res.",
    "ADDRESS_ No":"160",
    "ADDRESS_St":"LEROY STREET",
    "BO":"MA",
    "ZIP":10014,
    "Community Board":102,
    "Council District":3
    }
  },
  {
    "type": "Feature",
    "geometry": {
       "type": "Point",
       "coordinates":  [ -74.0161953,40.7086444 ]
    },
    "properties": {
    "Permit_Type":"Indoor",
    "Facility_Name":"LIBERTY COURT CONDOMINIUM",
    "Category":"Private Res.",
    "ADDRESS_ No":"200",
    "ADDRESS_St":"RECTOR PLACE",
    "BO":"MA",
    "ZIP":10280,
    "Community Board":101,
    "Council District":1
    }
  },
  {
    "type": "Feature",
    "geometry": {
       "type": "Point",
       "coordinates":  [ -73.9675345,40.7554918 ]
    },
    "properties": {
    "Permit_Type":"Indoor",
    "Facility_Name":"HALCYON CONDOMINIUM",
    "Category":"Private Res.",
    "ADDRESS_ No":"305",
    "ADDRESS_St":"EAST 51 STREET",
    "BO":"MA",
    "ZIP":10022,
    "Community Board":106,
    "Council District":4
    }
  },
  {
    "type": "Feature",
    "geometry": {
       "type": "Point",
       "coordinates":  [ -73.9809266,40.7619289 ]
    },
    "properties": {
    "Permit_Type":"Indoor",
    "Facility_Name":"THE 135 WEST STREET CONDOMINIUM",
    "Category":"Private Res.",
    "ADDRESS_ No":"135",
    "ADDRESS_St":"WEST 52 STREET",
    "BO":"MA",
    "ZIP":10019,
    "Community Board":105,
    "Council District":4
    }
  },
  {
    "type": "Feature",
    "geometry": {
       "type": "Point",
       "coordinates":  [ -73.9690071,40.7645744 ]
    },
    "properties": {
    "Permit_Type":"Indoor",
    "Facility_Name":"61 ST & PARK AVENUE CORPORATION",
    "Category":"Private Res.",
    "ADDRESS_ No":"540",
    "ADDRESS_St":"PARK AVENUE",
    "BO":"MA",
    "ZIP":10065,
    "Community Board":108,
    "Council District":4
    }
  },
  {
    "type": "Feature",
    "geometry": {
       "type": "Point",
       "coordinates":  [ -73.9726772,40.7513607 ]
    },
    "properties": {
    "Permit_Type":"Indoor",
    "Facility_Name":"BLDG 44 DEVELOPERS, LLC",
    "Category":"Private Res.",
    "ADDRESS_ No":"222",
    "ADDRESS_St":"EAST 44 STREET",
    "BO":"MA",
    "ZIP":10017,
    "Community Board":106,
    "Council District":4
    }
  },
  {
    "type": "Feature",
    "geometry": {
       "type": "Point",
       "coordinates":  [ -74.0034127,40.7532225 ]
    },
    "properties": {
    "Permit_Type":"Indoor",
    "Facility_Name":"ERY SOUTH RESIDENTIAL TOWER LLC",
    "Category":"Private Res.",
    "ADDRESS_ No":"553",
    "ADDRESS_St":"WEST 30 STREET",
    "BO":"MA",
    "ZIP":10001,
    "Community Board":104,
    "Council District":3
    }
  },
  {
    "type": "Feature",
    "geometry": {
       "type": "Point",
       "coordinates":  [ -73.980294,40.7671773 ]
    },
    "properties": {
    "Permit_Type":"Indoor",
    "Facility_Name":"VNO 225 WEST 58TH STREET LLC",
    "Category":"Private Res.",
    "ADDRESS_ No":"220",
    "ADDRESS_St":"CENTRAL PARK SOUTH",
    "BO":"MA",
    "ZIP":10019,
    "Community Board":105,
    "Council District":4
    }
  },
  {
    "type": "Feature",
    "geometry": {
       "type": "Point",
       "coordinates":  [ -73.9681149,40.7549514 ]
    },
    "properties": {
    "Permit_Type":"Indoor",
    "Facility_Name":"301 E 50TH STREET CONDOMINIUM",
    "Category":"Private Res.",
    "ADDRESS_ No":"301",
    "ADDRESS_St":"EAST 50 STREET",
    "BO":"MA",
    "ZIP":10022,
    "Community Board":106,
    "Council District":4
    }
  },
  {
    "type": "Feature",
    "geometry": {
       "type": "Point",
       "coordinates":  [ -74.0127212,40.7139639 ]
    },
    "properties": {
    "Permit_Type":"Indoor",
    "Facility_Name":"THE RESIDENTIAL SECTION OF 140 WEST STREET CONDOMINIUM",
    "Category":"Private Res.",
    "ADDRESS_ No":"100",
    "ADDRESS_St":"BARCLAY STREET",
    "BO":"MA",
    "ZIP":10007,
    "Community Board":101,
    "Council District":1
    }
  },
  {
    "type": "Feature",
    "geometry": {
       "type": "Point",
       "coordinates":  [ -73.9968797,40.7408839 ]
    },
    "properties": {
    "Permit_Type":"Indoor",
    "Facility_Name":"IGI 155 W 18 LLC",
    "Category":"Private Res.",
    "ADDRESS_ No":"155",
    "ADDRESS_St":"WEST 18 STREET",
    "BO":"MA",
    "ZIP":10011,
    "Community Board":104,
    "Council District":3
    }
  },
  {
    "type": "Feature",
    "geometry": {
       "type": "Point",
       "coordinates":  [ -73.9893994,40.7427741 ]
    },
    "properties": {
    "Permit_Type":"Indoor",
    "Facility_Name":"10 MADISON SQUARE WEST",
    "Category":"Private Res.",
    "ADDRESS_ No":"10",
    "ADDRESS_St":"MADISON SQUARE WEST",
    "BO":"MA",
    "ZIP":10010,
    "Community Board":105,
    "Council District":3
    }
  },
  {
    "type": "Feature",
    "geometry": {
       "type": "Point",
       "coordinates":  [ -73.9551546,40.7779756 ]
    },
    "properties": {
    "Permit_Type":"Indoor",
    "Facility_Name":"EVANS TOWER CONDOMINIUM ASSOCIATION",
    "Category":"Private Res.",
    "ADDRESS_ No":"171",
    "ADDRESS_St":"EAST 84 STREET",
    "BO":"MA",
    "ZIP":10028,
    "Community Board":108,
    "Council District":5
    }
  },
  {
    "type": "Feature",
    "geometry": {
       "type": "Point",
       "coordinates":  [ -73.9710995,40.7473868 ]
    },
    "properties": {
    "Permit_Type":"Indoor",
    "Facility_Name":"685 First Realty Company LLC",
    "Category":"Private Res.",
    "ADDRESS_ No":"685",
    "ADDRESS_St":"1 AVENUE",
    "BO":"MA",
    "ZIP":10016,
    "Community Board":106,
    "Council District":4
    }
  },
  {
    "type": "Feature",
    "geometry": {
       "type": "Point",
       "coordinates":  [ -73.9867219,40.7711766 ]
    },
    "properties": {
    "Permit_Type":"Indoor",
    "Facility_Name":"WEST 60TH REALTY LLC",
    "Category":"Private Res.",
    "ADDRESS_ No":"175",
    "ADDRESS_St":"WEST 60 STREET",
    "BO":"MA",
    "ZIP":10023,
    "Community Board":107,
    "Council District":3
    }
  },
  {
    "type": "Feature",
    "geometry": {
       "type": "Point",
       "coordinates":  [ -74.0071208,40.7475058 ]
    },
    "properties": {
    "Permit_Type":"Indoor",
    "Facility_Name":"551 WEST 21 ST CONDOMINIUM",
    "Category":"Private Res.",
    "ADDRESS_ No":"551",
    "ADDRESS_St":"WEST 21 STREET",
    "BO":"MA",
    "ZIP":10011,
    "Community Board":104,
    "Council District":3
    }
  },
  {
    "type": "Feature",
    "geometry": {
       "type": "Point",
       "coordinates":  [ -73.9855322,40.7393686 ]
    },
    "properties": {
    "Permit_Type":"Indoor",
    "Facility_Name":"122-130 EAST 23RD JV LLC",
    "Category":"Private Res.",
    "ADDRESS_ No":"122",
    "ADDRESS_St":"EAST 23 STREET",
    "BO":"MA",
    "ZIP":10010,
    "Community Board":105,
    "Council District":2
    }
  },
  {
    "type": "Feature",
    "geometry": {
       "type": "Point",
       "coordinates":  [ -73.9717539,40.7560086 ]
    },
    "properties": {
    "Permit_Type":"Indoor",
    "Facility_Name":"50 LEX DEVELOPMENT, LLC",
    "Category":"Private Res.",
    "ADDRESS_ No":"138",
    "ADDRESS_St":"EAST 50 STREET",
    "BO":"MA",
    "ZIP":10022,
    "Community Board":106,
    "Council District":4
    }
  },
  {
    "type": "Feature",
    "geometry": {
       "type": "Point",
       "coordinates":  [ -73.9835995,40.7474307 ]
    },
    "properties": {
    "Permit_Type":"Indoor",
    "Facility_Name":"MADISON 33 OWNERS LLC",
    "Category":"Private Res.",
    "ADDRESS_ No":"172",
    "ADDRESS_St":"MADISON AVENUE",
    "BO":"MA",
    "ZIP":10016,
    "Community Board":105,
    "Council District":4
    }
  },
  {
    "type": "Feature",
    "geometry": {
       "type": "Point",
       "coordinates":  [ -74.0062231,40.7176987 ]
    },
    "properties": {
    "Permit_Type":"Indoor",
    "Facility_Name":"56 LEONARD STREET CONDOMINIUM",
    "Category":"Private Res.",
    "ADDRESS_ No":"56",
    "ADDRESS_St":"LEONARD STREET",
    "BO":"MA",
    "ZIP":10013,
    "Community Board":101,
    "Council District":1
    }
  },
  {
    "type": "Feature",
    "geometry": {
       "type": "Point",
       "coordinates":  [ -74.0075912,40.7114369 ]
    },
    "properties": {
    "Permit_Type":"Indoor",
    "Facility_Name":"PARK ROW 23 OWNERS LLC",
    "Category":"Private Res.",
    "ADDRESS_ No":"25",
    "ADDRESS_St":"PARK ROW",
    "BO":"MA",
    "ZIP":10038,
    "Community Board":101,
    "Council District":1
    }
  },
  {
    "type": "Feature",
    "geometry": {
       "type": "Point",
       "coordinates":  [ -73.9833282,40.7419863 ]
    },
    "properties": {
    "Permit_Type":"Indoor",
    "Facility_Name":"90 LEXINGTON AVENUE CONDOMINIUM",
    "Category":"Private Res.",
    "ADDRESS_ No":"90",
    "ADDRESS_St":"LEXINGTON AVENUE",
    "BO":"MA",
    "ZIP":10016,
    "Community Board":105,
    "Council District":2
    }
  },
  {
    "type": "Feature",
    "geometry": {
       "type": "Point",
       "coordinates":  [ -74.0079944,40.71248 ]
    },
    "properties": {
    "Permit_Type":"Indoor",
    "Facility_Name":"WOOLWORTH 100 OWNER LLC",
    "Category":"Private Res.",
    "ADDRESS_ No":"2",
    "ADDRESS_St":"PARK PLACE",
    "BO":"MA",
    "ZIP":10007,
    "Community Board":101,
    "Council District":1
    }
  },
  {
    "type": "Feature",
    "geometry": {
       "type": "Point",
       "coordinates":  [ -73.9496634,40.7843444 ]
    },
    "properties": {
    "Permit_Type":"Indoor",
    "Facility_Name":"THE KENT CONDOMINIUM",
    "Category":"Private Res.",
    "ADDRESS_ No":"200",
    "ADDRESS_St":"EAST 95 STREET",
    "BO":"MA",
    "ZIP":10128,
    "Community Board":108,
    "Council District":5
    }
  },
  {
    "type": "Feature",
    "geometry": {
       "type": "Point",
       "coordinates":  [ -74.0063713,40.7270269 ]
    },
    "properties": {
    "Permit_Type":"Indoor",
    "Facility_Name":"70 CHARLTON APARTMENT CORPORATION",
    "Category":"Private Res.",
    "ADDRESS_ No":"70",
    "ADDRESS_St":"CHARLTON STREET",
    "BO":"MA",
    "ZIP":10014,
    "Community Board":102,
    "Council District":3
    }
  },
  {
    "type": "Feature",
    "geometry": {
       "type": "Point",
       "coordinates":  [ -74.0056368,40.7242197 ]
    },
    "properties": {
    "Permit_Type":"Indoor",
    "Facility_Name":"565 BROOME SOHO CONDOMINIUM",
    "Category":"Private Res.",
    "ADDRESS_ No":"565",
    "ADDRESS_St":"BROOME STREET",
    "BO":"MA",
    "ZIP":10013,
    "Community Board":102,
    "Council District":3
    }
  },
  {
    "type": "Feature",
    "geometry": {
       "type": "Point",
       "coordinates":  [ -74.0093524,40.7229769 ]
    },
    "properties": {
    "Permit_Type":"Indoor",
    "Facility_Name":"443 GREENWICH STREET",
    "Category":"Private Res.",
    "ADDRESS_ No":"443",
    "ADDRESS_St":"GREENWICH STREET",
    "BO":"MA",
    "ZIP":10013,
    "Community Board":101,
    "Council District":1
    }
  },
  {
    "type": "Feature",
    "geometry": {
       "type": "Point",
       "coordinates":  [ -73.9697422,40.7639511 ]
    },
    "properties": {
    "Permit_Type":"Indoor",
    "Facility_Name":"520 PARK AVENUE CONDOMINIUM",
    "Category":"Private Res.",
    "ADDRESS_ No":"520",
    "ADDRESS_St":"PARK AVENUE",
    "BO":"MA",
    "ZIP":10065,
    "Community Board":108,
    "Council District":4
    }
  },
  {
    "type": "Feature",
    "geometry": {
       "type": "Point",
       "coordinates":  [ -74.0075649,40.7319841 ]
    },
    "properties": {
    "Permit_Type":"Indoor",
    "Facility_Name":"100 BARROW STREET APARTMENT CORP",
    "Category":"Private Res.",
    "ADDRESS_ No":"100",
    "ADDRESS_St":"BARROW STREET",
    "BO":"MA",
    "ZIP":10014,
    "Community Board":102,
    "Council District":3
    }
  },
  {
    "type": "Feature",
    "geometry": {
       "type": "Point",
       "coordinates":  [ -73.9847706,40.7442132 ]
    },
    "properties": {
    "Permit_Type":"Indoor",
    "Facility_Name":"RG-29TH STREET OWNER I LLC",
    "Category":"Private Res.",
    "ADDRESS_ No":"30",
    "ADDRESS_St":"EAST 29 STREET",
    "BO":"MA",
    "ZIP":10016,
    "Community Board":105,
    "Council District":2
    }
  },
  {
    "type": "Feature",
    "geometry": {
       "type": "Point",
       "coordinates":  [ -73.9783542,40.7644999 ]
    },
    "properties": {
    "Permit_Type":"Indoor",
    "Facility_Name":"PARKER57, LLC",
    "Category":"Private Res.",
    "ADDRESS_ No":"118",
    "ADDRESS_St":"WEST 57 STREET",
    "BO":"MA",
    "ZIP":10019,
    "Community Board":105,
    "Council District":4
    }
  },
  {
    "type": "Feature",
    "geometry": {
       "type": "Point",
       "coordinates":  [ -73.9924742,40.7365982 ]
    },
    "properties": {
    "Permit_Type":"Indoor",
    "Facility_Name":"2 EAST 15TH STREET, LLC",
    "Category":"Private Res.",
    "ADDRESS_ No":"2",
    "ADDRESS_St":"EAST 15 STREET",
    "BO":"MA",
    "ZIP":10003,
    "Community Board":105,
    "Council District":2
    }
  },
  {
    "type": "Feature",
    "geometry": {
       "type": "Point",
       "coordinates":  [ -74.015579,40.705538 ]
    },
    "properties": {
    "Permit_Type":"Outdoor",
    "Facility_Name":"SAFON OWNER LLC",
    "Category":"Private Res.",
    "ADDRESS_ No":"2",
    "ADDRESS_St":"WASHINGTON STREET",
    "BO":"MA",
    "ZIP":10004,
    "Community Board":101,
    "Council District":1
    }
  },
  {
    "type": "Feature",
    "geometry": {
       "type": "Point",
       "coordinates":  [ -73.9865838,40.7565133 ]
    },
    "properties": {
    "Permit_Type":"Outdoor",
    "Facility_Name":"560 SEVENTH AVENUE OWNER PRIMARY, LLC",
    "Category":"Private Res.",
    "ADDRESS_ No":"560",
    "ADDRESS_St":"7 AVENUE",
    "BO":"MA",
    "ZIP":10018,
    "Community Board":105,
    "Council District":3
    }
  },
  {
    "type": "Feature",
    "geometry": {
       "type": "Point",
       "coordinates":  [ -74.0034415,40.7511686 ]
    },
    "properties": {
    "Permit_Type":"Indoor",
    "Facility_Name":"JARDIM CONDOMINIUM",
    "Category":"Private Res.",
    "ADDRESS_ No":"530",
    "ADDRESS_St":"WEST 28 STREET",
    "BO":"MA",
    "ZIP":10001,
    "Community Board":104,
    "Council District":3
    }
  },
  {
    "type": "Feature",
    "geometry": {
       "type": "Point",
       "coordinates":  [ -74.0079944,40.71248 ]
    },
    "properties": {
    "Permit_Type":"Indoor",
    "Facility_Name":"THE WOOLWORTH TOWER RESIDENCES",
    "Category":"Private Res.",
    "ADDRESS_ No":"2",
    "ADDRESS_St":"PARK PLACE",
    "BO":"MA",
    "ZIP":10007,
    "Community Board":101,
    "Council District":1
    }
  },
  {
    "type": "Feature",
    "geometry": {
       "type": "Point",
       "coordinates":  [ -73.8253359,40.7669532 ]
    },
    "properties": {
    "Permit_Type":"Indoor",
    "Facility_Name":"DORADO HOUSE FLUSHING INC",
    "Category":"Private Res.",
    "ADDRESS_ No":"140-55",
    "ADDRESS_St":"34 AVENUE",
    "BO":"QU",
    "ZIP":11354,
    "Community Board":407,
    "Council District":20
    }
  },
  {
    "type": "Feature",
    "geometry": {
       "type": "Point",
       "coordinates":  [ -73.9143965,40.8855625 ]
    },
    "properties": {
    "Permit_Type":"Indoor",
    "Facility_Name":"WHITEHALL TENANTS CORP",
    "Category":"Private Res.",
    "ADDRESS_ No":"3333",
    "ADDRESS_St":"HENRY HUDSON PARKWAY",
    "BO":"BX",
    "ZIP":10463,
    "Community Board":208,
    "Council District":11
    }
  },
  {
    "type": "Feature",
    "geometry": {
       "type": "Point",
       "coordinates":  [ -73.9177034,40.876794 ]
    },
    "properties": {
    "Permit_Type":"Indoor",
    "Facility_Name":"WINSTON CHURCHILL OWNERS CORP",
    "Category":"Private Res.",
    "ADDRESS_ No":"2500",
    "ADDRESS_St":"JOHNSON AVENUE",
    "BO":"BX",
    "ZIP":10463,
    "Community Board":208,
    "Council District":11
    }
  },
  {
    "type": "Feature",
    "geometry": {
       "type": "Point",
       "coordinates":  [ -73.7857904,40.7123729 ]
    },
    "properties": {
    "Permit_Type":"Indoor",
    "Facility_Name":"175-20 WEXFORD TERRACE OWNER'S INC",
    "Category":"Private Res.",
    "ADDRESS_ No":"175-61",
    "ADDRESS_St":"HILLSIDE AVENUE",
    "BO":"QU",
    "ZIP":11432,
    "Community Board":408,
    "Council District":24
    }
  },
  {
    "type": "Feature",
    "geometry": {
       "type": "Point",
       "coordinates":  [ -73.9184692,40.8763984 ]
    },
    "properties": {
    "Permit_Type":"Indoor",
    "Facility_Name":"2400 JOHNSON AVENUE OWNERS INC",
    "Category":"Private Res.",
    "ADDRESS_ No":"2400",
    "ADDRESS_St":"JOHNSON AVENUE",
    "BO":"BX",
    "ZIP":10463,
    "Community Board":208,
    "Council District":11
    }
  },
  {
    "type": "Feature",
    "geometry": {
       "type": "Point",
       "coordinates":  [ -73.7872106,40.786622 ]
    },
    "properties": {
    "Permit_Type":"Indoor",
    "Facility_Name":"BAY BRIDGE CONDOMINIUMS",
    "Category":"Private Res.",
    "ADDRESS_ No":"13-34",
    "ADDRESS_St":"ESTATES LANE",
    "BO":"QU",
    "ZIP":11360,
    "Community Board":407,
    "Council District":19
    }
  },
  {
    "type": "Feature",
    "geometry": {
       "type": "Point",
       "coordinates":  [ -74.0646359,40.6151849 ]
    },
    "properties": {
    "Permit_Type":"Indoor",
    "Facility_Name":"OCEAN VIEW CONDOMINIUM ASSOCIATION",
    "Category":"Private Res.",
    "ADDRESS_ No":"31",
    "ADDRESS_St":"HYLAN BOULEVARD",
    "BO":"SI",
    "ZIP":10305,
    "Community Board":501,
    "Council District":49
    }
  },
  {
    "type": "Feature",
    "geometry": {
       "type": "Point",
       "coordinates":  [ -73.9283585,40.7765717 ]
    },
    "properties": {
    "Permit_Type":"Indoor",
    "Facility_Name":"SHORE TOWERS CONDOMINIUM POOL",
    "Category":"Private Res.",
    "ADDRESS_ No":"25-40",
    "ADDRESS_St":"SHORE BOULEVARD",
    "BO":"QU",
    "ZIP":11102,
    "Community Board":401,
    "Council District":22
    }
  },
  {
    "type": "Feature",
    "geometry": {
       "type": "Point",
       "coordinates":  [ -73.9222066,40.881419 ]
    },
    "properties": {
    "Permit_Type":"Indoor",
    "Facility_Name":"LA RIVE CONDOMINIUM MIDBORO MGT. INC",
    "Category":"Private Res.",
    "ADDRESS_ No":"2521-23",
    "ADDRESS_St":"PALISADE AVENUE",
    "BO":"BX",
    "ZIP":10463,
    "Community Board":208,
    "Council District":11
    }
  },
  {
    "type": "Feature",
    "geometry": {
       "type": "Point",
       "coordinates":  [ -74.0323073,40.6259955 ]
    },
    "properties": {
    "Permit_Type":"Outdoor",
    "Facility_Name":"RIDGEFIELD TOWERS TENANTS CORP",
    "Category":"Private Res.",
    "ADDRESS_ No":"8301",
    "ADDRESS_St":"RIDGE BOULEVARD",
    "BO":"BK",
    "ZIP":11209,
    "Community Board":310,
    "Council District":43
    }
  },
  {
    "type": "Feature",
    "geometry": {
       "type": "Point",
       "coordinates":  [ -73.9137075,40.8890444 ]
    },
    "properties": {
    "Permit_Type":"Outdoor",
    "Facility_Name":"3777 INDEPENDENCE CORP",
    "Category":"Private Res.",
    "ADDRESS_ No":"3777",
    "ADDRESS_St":"INDEPENDENCE AVENUE",
    "BO":"BX",
    "ZIP":10463,
    "Community Board":208,
    "Council District":11
    }
  },
  {
    "type": "Feature",
    "geometry": {
       "type": "Point",
       "coordinates":  [ -73.8113496,40.5858228 ]
    },
    "properties": {
    "Permit_Type":"Outdoor",
    "Facility_Name":"DAYTON BEACH PARK #1 CORP",
    "Category":"Private Res.",
    "ADDRESS_ No":"8600",
    "ADDRESS_St":"SHORE FRONT PARKWAY",
    "BO":"QU",
    "ZIP":11694,
    "Community Board":414,
    "Council District":32
    }
  },
  {
    "type": "Feature",
    "geometry": {
       "type": "Point",
       "coordinates":  [ -73.9735905,40.5755355 ]
    },
    "properties": {
    "Permit_Type":"Outdoor",
    "Facility_Name":"BRIGHTWATER TOWERS INC",
    "Category":"Private Res.",
    "ADDRESS_ No":"501",
    "ADDRESS_St":"SURF AVENUE",
    "BO":"BK",
    "ZIP":11224,
    "Community Board":313,
    "Council District":48
    }
  },
  {
    "type": "Feature",
    "geometry": {
       "type": "Point",
       "coordinates":  [ -73.9170513,40.878087 ]
    },
    "properties": {
    "Permit_Type":"Outdoor",
    "Facility_Name":"RIVERPOINT TOWERS COOP INC",
    "Category":"Private Res.",
    "ADDRESS_ No":"555",
    "ADDRESS_St":"KAPPOCK STREET",
    "BO":"BX",
    "ZIP":10463,
    "Community Board":208,
    "Council District":11
    }
  },
  {
    "type": "Feature",
    "geometry": {
       "type": "Point",
       "coordinates":  [ -73.8711721,40.8374475 ]
    },
    "properties": {
    "Permit_Type":"Outdoor",
    "Facility_Name":"NOBLE MANSION HOUSING CO INC",
    "Category":"Private Res.",
    "ADDRESS_ No":"1500",
    "ADDRESS_St":"NOBLE AVENUE",
    "BO":"BX",
    "ZIP":10460,
    "Community Board":209,
    "Council District":18
    }
  },
  {
    "type": "Feature",
    "geometry": {
       "type": "Point",
       "coordinates":  [ -73.8506712,40.7281583 ]
    },
    "properties": {
    "Permit_Type":"Outdoor",
    "Facility_Name":"BIRCHWOOD TOWERS SWIM POOL INC",
    "Category":"Private Res.",
    "ADDRESS_ No":"102-31",
    "ADDRESS_St":"67 AVENUE",
    "BO":"QU",
    "ZIP":11375,
    "Community Board":406,
    "Council District":29
    }
  },
  {
    "type": "Feature",
    "geometry": {
       "type": "Point",
       "coordinates":  [ -73.8242162,40.5827931 ]
    },
    "properties": {
    "Permit_Type":"Outdoor",
    "Facility_Name":"DAYTON TOWERS CORP",
    "Category":"Private Res.",
    "ADDRESS_ No":"103-00",
    "ADDRESS_St":"SHORE FRONT PARKWAY",
    "BO":"QU",
    "ZIP":11694,
    "Community Board":414,
    "Council District":32
    }
  },
  {
    "type": "Feature",
    "geometry": {
       "type": "Point",
       "coordinates":  [ -73.8061108,40.5871601 ]
    },
    "properties": {
    "Permit_Type":"Outdoor",
    "Facility_Name":"DAYTON TOWERS CORP",
    "Category":"Private Res.",
    "ADDRESS_ No":"8000",
    "ADDRESS_St":"SHORE FRONT PARKWAY",
    "BO":"QU",
    "ZIP":11693,
    "Community Board":414,
    "Council District":32
    }
  },
  {
    "type": "Feature",
    "geometry": {
       "type": "Point",
       "coordinates":  [ -73.8024344,40.5874835 ]
    },
    "properties": {
    "Permit_Type":"Outdoor",
    "Facility_Name":"DAYTON TOWERS CORP",
    "Category":"Private Res.",
    "ADDRESS_ No":"7400",
    "ADDRESS_St":"SHORE FRONT PARKWAY",
    "BO":"QU",
    "ZIP":11694,
    "Community Board":414,
    "Council District":32
    }
  },
  {
    "type": "Feature",
    "geometry": {
       "type": "Point",
       "coordinates":  [ -73.7413271,40.7539834 ]
    },
    "properties": {
    "Permit_Type":"Outdoor",
    "Facility_Name":"DOUGLASTON TOWNE HSE CONDOMINIUM",
    "Category":"Private Res.",
    "ADDRESS_ No":"62-77",
    "ADDRESS_St":"DOUGLASTON PARKWAY",
    "BO":"QU",
    "ZIP":11362,
    "Community Board":411,
    "Council District":23
    }
  },
  {
    "type": "Feature",
    "geometry": {
       "type": "Point",
       "coordinates":  [ -73.9395372,40.5894827 ]
    },
    "properties": {
    "Permit_Type":"Outdoor",
    "Facility_Name":"SEA ISLE OWNERS INC",
    "Category":"Private Res.",
    "ADDRESS_ No":"3901",
    "ADDRESS_St":"NOSTRAND AVENUE",
    "BO":"BK",
    "ZIP":11235,
    "Community Board":315,
    "Council District":48
    }
  },
  {
    "type": "Feature",
    "geometry": {
       "type": "Point",
       "coordinates":  [ -73.796598,40.7944231 ]
    },
    "properties": {
    "Permit_Type":"Outdoor",
    "Facility_Name":"THE CRYDER HOUSE INC",
    "Category":"Private Res.",
    "ADDRESS_ No":"166-25",
    "ADDRESS_St":"POWELLS COVE BOULEVARD",
    "BO":"QU",
    "ZIP":11357,
    "Community Board":407,
    "Council District":19
    }
  },
  {
    "type": "Feature",
    "geometry": {
       "type": "Point",
       "coordinates":  [ -74.1388029,40.5475051 ]
    },
    "properties": {
    "Permit_Type":"Outdoor",
    "Facility_Name":"YACHT CLUB COVE CONDOMINUM",
    "Category":"Private Res.",
    "ADDRESS_ No":"9",
    "ADDRESS_St":"YACHT CLUB COVE",
    "BO":"SI",
    "ZIP":10308,
    "Community Board":503,
    "Council District":51
    }
  },
  {
    "type": "Feature",
    "geometry": {
       "type": "Point",
       "coordinates":  [ -73.8566899,40.8225612 ]
    },
    "properties": {
    "Permit_Type":"Outdoor",
    "Facility_Name":"PARK LANE RESIDENCE CO",
    "Category":"Private Res.",
    "ADDRESS_ No":"1965",
    "ADDRESS_St":"LAFAYETTE AVENUE",
    "BO":"BX",
    "ZIP":10473,
    "Community Board":209,
    "Council District":18
    }
  },
  {
    "type": "Feature",
    "geometry": {
       "type": "Point",
       "coordinates":  [ -73.9156825,40.8902116 ]
    },
    "properties": {
    "Permit_Type":"Outdoor",
    "Facility_Name":"HUDSON TOWERS ASSOC",
    "Category":"Private Res.",
    "ADDRESS_ No":"699",
    "ADDRESS_St":"WEST 239 STREET",
    "BO":"BX",
    "ZIP":10471,
    "Community Board":208,
    "Council District":11
    }
  },
  {
    "type": "Feature",
    "geometry": {
       "type": "Point",
       "coordinates":  [ -73.9518978,40.5836263 ]
    },
    "properties": {
    "Permit_Type":"Outdoor",
    "Facility_Name":"1625 EMMONS AVENUE OWNES INC",
    "Category":"Private Res.",
    "ADDRESS_ No":"1625",
    "ADDRESS_St":"EMMONS AVENUE",
    "BO":"BK",
    "ZIP":11235,
    "Community Board":315,
    "Council District":48
    }
  },
  {
    "type": "Feature",
    "geometry": {
       "type": "Point",
       "coordinates":  [ -73.7780959,40.7836425 ]
    },
    "properties": {
    "Permit_Type":"Outdoor",
    "Facility_Name":"BELSHIRE MANOR PROPERTY",
    "Category":"Private Res.",
    "ADDRESS_ No":"16-66",
    "ADDRESS_St":"BELL BOULEVARD",
    "BO":"QU",
    "ZIP":11360,
    "Community Board":407,
    "Council District":19
    }
  },
  {
    "type": "Feature",
    "geometry": {
       "type": "Point",
       "coordinates":  [ -74.1606727,40.5947411 ]
    },
    "properties": {
    "Permit_Type":"Outdoor",
    "Facility_Name":"1284-1306 ROCKLAND APT/OWNERS",
    "Category":"Private Res.",
    "ADDRESS_ No":"1302",
    "ADDRESS_St":"ROCKLAND AVENUE",
    "BO":"SI",
    "ZIP":10314,
    "Community Board":502,
    "Council District":51
    }
  },
  {
    "type": "Feature",
    "geometry": {
       "type": "Point",
       "coordinates":  [ -74.1372546,40.5564999 ]
    },
    "properties": {
    "Permit_Type":"Outdoor",
    "Facility_Name":"25 BAY TERRACE ASSSOCIATES",
    "Category":"Private Res.",
    "ADDRESS_ No":"25",
    "ADDRESS_St":"BAY TERRACE",
    "BO":"SI",
    "ZIP":10306,
    "Community Board":503,
    "Council District":51
    }
  },
  {
    "type": "Feature",
    "geometry": {
       "type": "Point",
       "coordinates":  [ -73.8111217,40.7188694 ]
    },
    "properties": {
    "Permit_Type":"Outdoor",
    "Facility_Name":"VILLAGE MALL OF HILLCREST COND HSE",
    "Category":"Private Res.",
    "ADDRESS_ No":"152-18",
    "ADDRESS_St":"UNION TURNPIKE",
    "BO":"QU",
    "ZIP":11367,
    "Community Board":408,
    "Council District":24
    }
  },
  {
    "type": "Feature",
    "geometry": {
       "type": "Point",
       "coordinates":  [ -74.0731663,40.6048155 ]
    },
    "properties": {
    "Permit_Type":"Outdoor",
    "Facility_Name":"HILLS AT GRASMERE HOME OWNERS ASSN INC",
    "Category":"Private Res.",
    "ADDRESS_ No":"90",
    "ADDRESS_St":"NARROWS ROAD SOUTH",
    "BO":"SI",
    "ZIP":10305,
    "Community Board":502,
    "Council District":50
    }
  },
  {
    "type": "Feature",
    "geometry": {
       "type": "Point",
       "coordinates":  [ -73.7135392,40.757706 ]
    },
    "properties": {
    "Permit_Type":"Outdoor",
    "Facility_Name":"TOWERS COUNTRY CLUB INC",
    "Category":"Private Res.",
    "ADDRESS_ No":"272-86",
    "ADDRESS_St":"GRAND CENTRAL PARKWAY",
    "BO":"QU",
    "ZIP":11005,
    "Community Board":413,
    "Council District":23
    }
  },
  {
    "type": "Feature",
    "geometry": {
       "type": "Point",
       "coordinates":  [ -74.1986148,40.5542363 ]
    },
    "properties": {
    "Permit_Type":"Outdoor",
    "Facility_Name":"VILLAGE GREENS RESIDENTS ASSOC INC",
    "Category":"Private Res.",
    "ADDRESS_ No":"145",
    "ADDRESS_St":"CARLYLE GREEN",
    "BO":"SI",
    "ZIP":10312,
    "Community Board":null,
    "Council District":null
    }
  },
  {
    "type": "Feature",
    "geometry": {
       "type": "Point",
       "coordinates":  [ -74.1388143,40.5565638 ]
    },